name,temp,humidity,clouds,wind_speed,country code,lat,lng
menongue,59.60041666666668,28.5,0.0,5.144583333333334,ao,-14.662,17.688
wawa,61.70333333333334,68.375,21.0,4.986249999999999,ca,48.0,-84.783
sainte-suzanne,67.71875000000001,75.41666666666667,56.041666666666664,18.460833333333333,re,-20.9,55.617
edson,64.175,62.583333333333336,26.5,7.240416666666666,ca,53.583,-116.417
fez,96.56791666666668,12.666666666666666,33.291666666666664,8.680833333333332,ma,34.037,-5.0
asimion,81.11916666666667,61.625,11.666666666666666,16.515000000000004,gr,35.05,25.1
moyale,72.50500000000001,52.791666666666664,88.75,12.443750000000003,et,3.569,39.083
tres picos,81.47250000000001,70.375,68.83333333333333,4.078333333333333,mx,15.867,-93.533
zigong,77.74083333333334,92.54166666666667,82.16666666666667,3.145,cn,29.342,104.777
mangan,76.97541666666667,89.91666666666667,96.41666666666667,1.499583333333333,in,27.517,88.533
campbell river,68.91416666666665,55.083333333333336,27.041666666666668,8.584583333333335,ca,50.017,-125.25
zhob,89.07125,35.875,5.375,6.537916666666667,pk,31.341,69.448
poronaysk,66.27208333333336,83.25,55.666666666666664,6.823333333333334,ru,49.217,143.117
ortigueira,57.70333333333332,67.04166666666667,0.0,1.6275000000000002,br,-24.2,-50.917
malindi,77.64833333333333,80.54166666666667,50.708333333333336,11.296666666666667,ke,-3.217,40.117
alcaniz,74.52124999999998,62.458333333333336,44.958333333333336,4.707499999999999,es,41.05,-0.133
namtsy,56.224999999999994,72.25,3.3333333333333335,7.549166666666669,ru,62.716,129.666
stoyba,67.00541666666668,92.95833333333333,82.125,3.1895833333333328,ru,52.8,131.7
holetown,81.275,83.04166666666667,63.333333333333336,23.399166666666662,bb,13.183,-59.65
hunza,75.90583333333332,48.291666666666664,23.75,3.989166666666666,pk,36.319,74.664
leticia,76.55458333333334,94.04166666666667,65.83333333333333,2.8395833333333322,co,-4.215,-69.941
sedkyrkeshch,61.475000000000016,68.54166666666667,36.25,5.5908333333333315,ru,61.75,50.917
alta floresta,77.3604166666667,41.125,33.666666666666664,5.237916666666666,br,-9.9,-55.9
hay river,66.95000000000002,73.95833333333333,75.0,9.732500000000002,ca,60.85,-115.7
arraial do cabo,69.96541666666667,81.70833333333333,5.0,6.204583333333335,br,-22.967,-42.017
ask,64.49625,77.70833333333333,34.166666666666664,11.800000000000002,no,60.083,11.033
omura,79.94166666666666,88.125,74.0,6.187083333333333,jp,32.921,129.954
matinha,78.39250000000001,79.20833333333333,51.291666666666664,3.763333333333334,br,-3.1,-45.033
is,57.82416666666666,56.166666666666664,5.875,7.2175,ru,58.793,59.718
south yuba city,92.57125000000002,28.708333333333332,11.875,6.937916666666666,us,39.117,-121.638
lewisporte,62.25083333333333,77.375,65.0,7.329166666666666,ca,49.233,-55.067
bulgan,65.82416666666666,79.875,70.125,3.220833333333333,mn,48.811,103.532
carlos chagas,70.085,68.91666666666667,28.708333333333332,3.3229166666666665,br,-17.717,-40.75
tunxi,85.09583333333335,72.875,99.75,3.040416666666667,cn,29.711,118.312
inyonga,66.71458333333334,38.5,2.5833333333333335,5.282916666666667,tz,-6.717,32.067
benoy,80.73666666666666,78.45833333333333,50.583333333333336,5.2325,td,8.983,16.317
kalevala,70.75916666666667,65.08333333333333,81.625,4.4775,ru,65.205,31.176
mbanza-ngungu,74.41250000000001,61.791666666666664,4.666666666666667,5.570833333333333,cd,-5.25,14.867
bronnoysund,64.15374999999999,82.5,71.04166666666667,11.60416666666667,no,65.467,12.217
ikom,76.27958333333332,90.29166666666667,72.41666666666667,2.0300000000000002,ng,5.961,8.711
krasnokholmskiy,64.29625,63.708333333333336,60.666666666666664,11.369583333333333,ru,55.987,55.047
ziro,72.27125000000001,86.75,73.91666666666667,3.1404166666666655,in,27.633,93.833
znamenskoye,68.0491666666667,69.16666666666667,53.416666666666664,5.724166666666666,ru,57.128,73.828
teresina,84.65000000000002,62.958333333333336,10.625,5.250416666666666,br,-5.083,-42.817
rocky mountain house,64.18791666666665,65.54166666666667,58.791666666666664,5.187499999999999,ca,52.367,-114.917
santa maria del oro,72.73958333333333,51.166666666666664,87.125,5.4312499999999995,mx,25.933,-105.367
sao paulo de olivenca,74.7175,94.66666666666667,87.91666666666667,1.3325,br,-3.45,-68.8
bela vista,74.16625,36.583333333333336,3.5,5.524583333333333,br,-22.1,-56.517
severo-kurilsk,52.438333333333325,91.25,98.625,6.456250000000002,ru,50.679,156.125
puerto del rosario,74.64708333333333,75.95833333333333,33.958333333333336,9.765833333333335,es,28.5,-13.863
kiunga,78.40416666666667,89.125,89.625,2.5783333333333327,pg,-6.117,141.3
uyskoye,59.71458333333333,82.75,97.41666666666667,13.084166666666667,ru,54.345,60.018
praia,75.575,67.875,54.583333333333336,9.784166666666666,cv,14.917,-23.517
shirokiy,62.55125,66.41666666666667,62.375,12.912083333333335,ru,63.117,147.95
huangmei,85.51375,75.04166666666667,94.375,4.915,cn,30.192,116.025
nha trang,79.39999999999999,85.70833333333333,37.083333333333336,3.4841666666666655,vn,12.25,109.183
suntar,63.04124999999999,58.083333333333336,89.08333333333333,4.418333333333333,ru,62.144,117.632
kemin,68.03333333333333,57.0,50.333333333333336,5.786250000000002,kg,42.785,75.691
sao gotardo,61.634166666666665,49.416666666666664,0.0,3.471250000000001,br,-19.317,-46.05
minot,76.73500000000003,54.916666666666664,1.0,8.677083333333332,us,48.233,-101.296
betioky,71.53708333333333,42.166666666666664,0.0,4.89625,mg,-23.717,44.383
khani,61.46708333333331,69.08333333333333,62.5,2.563333333333333,ru,57.033,120.967
topeka,69.44958333333332,78.625,64.95833333333333,8.625416666666665,us,39.048,-95.678
tabory,57.76291666666666,63.708333333333336,64.875,7.290000000000002,ru,58.52,64.549
banff,65.70708333333333,44.0,48.791666666666664,4.679166666666666,ca,51.167,-115.567
dingle,58.33375,84.58333333333333,71.625,5.943333333333334,ie,52.141,-10.269
khasan,69.67958333333334,92.41666666666667,49.791666666666664,4.345000000000001,ru,42.422,130.653
itoman,82.51208333333334,82.75,56.875,6.908333333333334,jp,26.125,127.669
starosubkhangulovo,63.762083333333344,84.29166666666667,44.333333333333336,5.422083333333333,ru,53.103,57.442
kermanshah,85.925,11.791666666666666,0.8333333333333334,8.343333333333334,ir,34.314,47.065
pleasanton,80.7654166666667,78.875,46.333333333333336,6.295833333333332,us,28.967,-98.478
port hardy,56.74499999999998,77.16666666666667,43.166666666666664,9.83,ca,50.717,-127.5
navirai,69.08125,50.25,0.0,4.691666666666666,br,-23.133,-54.217
chipinge,58.64583333333332,63.125,0.7916666666666666,4.145833333333333,zw,-20.2,32.617
gao,92.27458333333334,37.291666666666664,65.04166666666667,6.910833333333334,ml,16.267,-0.05
tiruvottiyur,85.39999999999999,69.54166666666667,75.0,7.397083333333334,in,13.158,80.304
yongan,85.08416666666668,66.75,99.95833333333333,2.8745833333333337,cn,25.98,117.364
fianarantsoa,57.447083333333346,79.375,32.5,5.867916666666667,mg,-21.433,47.083
loandjili,73.62500000000001,89.875,75.41666666666667,6.234583333333333,cg,-4.756,11.858
tiassale,76.3625,80.83333333333333,44.041666666666664,3.3162499999999997,ci,5.898,-4.823
impfondo,76.77333333333331,73.66666666666667,82.5,2.644166666666667,cg,1.638,18.067
lesnoy,57.99833333333333,58.541666666666664,0.5833333333333334,7.017916666666667,ru,59.781,52.128
baraki barak,83.42083333333333,19.958333333333332,17.958333333333332,4.978750000000002,af,33.968,68.949
gimli,79.45083333333334,56.208333333333336,13.958333333333334,5.524583333333333,ca,50.633,-97.0
miranda,74.1375,33.583333333333336,0.0,4.483333333333333,br,-20.233,-56.367
porciuncula,66.68458333333334,66.75,2.2916666666666665,3.247083333333333,br,-20.967,-42.033
zhanaozen,85.54374999999999,22.541666666666668,2.4583333333333335,7.334583333333332,kz,43.3,52.8
yarkovo,60.18291666666667,72.875,99.75,9.790416666666669,ru,57.403,67.079
vila franca do campo,67.925,80.0,44.166666666666664,15.152500000000003,pt,37.717,-25.433
ginda,86.26833333333332,47.375,46.125,7.08875,er,15.449,39.089
kearney,68.43208333333334,73.66666666666667,25.708333333333332,10.16875,us,40.699,-99.081
starachowice,70.74416666666666,49.833333333333336,60.125,5.232083333333333,pl,51.052,21.088
vagamo,61.01458333333333,72.08333333333333,74.08333333333333,3.4112499999999994,no,61.883,9.1
port keats,77.65875000000001,32.875,67.33333333333333,5.956666666666667,au,-14.24,129.521
manyana,57.69458333333333,27.166666666666668,0.0,9.053749999999999,bw,-23.4,21.717
staryy saltiv,80.60291666666667,51.625,1.6666666666666667,5.871666666666665,ua,50.083,36.794
tambacounda,87.57499999999999,64.79166666666667,62.708333333333336,7.196666666666665,sn,13.783,-13.667
sonoita,94.18416666666668,33.333333333333336,54.916666666666664,7.586250000000001,mx,31.85,-112.833
dubti,93.4325,35.541666666666664,36.458333333333336,11.267083333333332,et,11.736,41.085
nong chik,78.49374999999999,84.41666666666667,95.66666666666667,6.2754166666666675,th,6.844,101.178
altay,69.77666666666667,54.333333333333336,80.79166666666667,4.5874999999999995,cn,47.867,88.117
coari,78.08625,80.70833333333333,98.41666666666667,2.972083333333334,br,-4.109,-63.139
jabiru,76.21791666666667,29.0,63.041666666666664,8.199583333333331,au,-12.676,132.831
bintulu,81.05208333333336,87.79166666666667,35.833333333333336,3.4391666666666656,my,3.167,113.033
novo aripuana,80.91125,69.45833333333333,97.20833333333333,2.15,br,-5.12,-60.379
zonguldak,75.8304166666667,72.29166666666667,10.833333333333334,5.015,tr,41.451,31.793
khash,91.90375,20.375,38.5,7.06,ir,28.221,61.216
vernon,81.45666666666665,66.625,22.708333333333332,7.875000000000001,us,34.154,-99.265
gryfice,70.12666666666668,65.75,1.6666666666666667,7.7700000000000005,pl,53.916,15.198
pontal do parana,63.28916666666666,85.83333333333333,4.666666666666667,3.2158333333333338,br,-25.58,-48.354
kwinana,59.31624999999999,63.708333333333336,46.25,13.860000000000001,au,-32.23,115.781
kavieng,82.82541666666667,75.04166666666667,75.25,13.259583333333337,pg,-2.567,150.8
pailon,76.87666666666668,70.16666666666667,57.5,5.895,bo,-17.65,-62.75
mercedes,63.35249999999997,81.375,15.625,8.31916666666667,ar,-29.182,-58.079
maningrida,75.46541666666667,57.375,66.95833333333333,9.880416666666667,au,-12.051,134.223
santa josefa,78.77125000000001,87.16666666666667,75.20833333333333,2.483333333333333,ph,7.991,126.03
berdigestyakh,59.137499999999996,49.375,59.958333333333336,5.84375,ru,62.099,126.699
laguna de perlas,77.02083333333333,91.95833333333333,80.41666666666667,7.264166666666669,ni,12.35,-83.667
de aar,53.13291666666665,35.333333333333336,4.75,9.936666666666666,za,-30.65,24.012
can tho,81.94999999999997,88.08333333333333,44.791666666666664,2.7883333333333336,vn,10.033,105.783
ndele,72.67041666666667,90.04166666666667,95.58333333333333,4.368333333333331,cf,8.409,20.653
orje,64.01374999999999,82.33333333333333,43.583333333333336,10.695833333333335,no,59.483,11.65
lagunas,75.47291666666668,89.08333333333333,74.375,1.3987500000000004,pe,-5.227,-75.675
ust-karsk,70.20666666666668,50.333333333333336,72.58333333333333,2.1875,ru,52.701,118.808
kishi,76.43833333333332,80.83333333333333,61.416666666666664,4.736250000000001,ng,9.083,3.85
agadez,89.35374999999999,45.75,32.875,11.269166666666669,ne,16.974,7.991
fayaoue,73.09791666666666,73.0,97.83333333333333,11.946666666666667,nc,-20.65,166.533
stavropol,77.41416666666666,39.125,1.6666666666666667,7.597083333333333,ru,45.043,41.973
saskylakh,43.61833333333333,50.583333333333336,73.79166666666667,12.118749999999999,ru,71.917,114.083
erie,71.55000000000001,43.333333333333336,17.666666666666668,4.820416666666666,us,40.05,-105.049
tidore,79.01666666666667,74.875,59.625,3.1008333333333336,id,0.667,127.433
perelyub,74.12375,53.5,19.166666666666668,11.957499999999998,ru,51.867,50.367
yabelo,63.0675,57.166666666666664,96.91666666666667,7.379583333333333,et,4.883,38.083
nehalim,81.00250000000001,70.25,18.375,7.400000000000002,il,32.062,34.914
pemba,75.33833333333332,75.83333333333333,28.375,14.745416666666673,mz,-12.961,40.508
launceston,42.54166666666667,91.25,67.5,4.6499999999999995,au,-41.439,147.135
aksarayskiy,85.15874999999998,36.75,0.0,9.879166666666665,ru,46.792,48.012
wau,70.185,77.83333333333333,51.708333333333336,3.399166666666666,pg,-7.333,146.717
ust-ilimsk,66.6075,50.083333333333336,74.04166666666667,2.830833333333333,ru,58.001,102.662
setermoen,63.465833333333336,68.125,59.583333333333336,4.62125,no,68.867,18.367
bredasdorp,50.3675,70.41666666666667,9.25,4.754583333333333,za,-34.532,20.04
huangchuan,86.71208333333333,69.625,99.58333333333333,15.918333333333335,cn,32.127,115.039
oum hadjer,93.49666666666668,33.75,74.04166666666667,12.024166666666668,td,13.3,19.683
kutum,84.87583333333332,34.083333333333336,70.33333333333333,10.435,sd,14.2,24.667
paso de los toros,48.46708333333333,63.125,2.4166666666666665,6.2775,uy,-32.817,-56.517
pizhma,64.77708333333334,56.0,10.041666666666666,6.819583333333334,ru,57.864,47.117
lephepe,59.40999999999999,36.5,0.0,7.278333333333332,bw,-23.317,25.8
anadyr,61.86375000000001,68.70833333333333,4.125,4.939166666666666,ru,64.75,177.483
aginskoye,62.98708333333334,77.20833333333333,25.5,2.65875,ru,55.259,94.908
sassandra,77.2654166666667,77.375,51.375,5.2925,ci,4.95,-6.083
havre-saint-pierre,57.14374999999999,83.33333333333333,50.291666666666664,6.041666666666667,ca,50.25,-63.583
la ligua,46.775000000000006,83.625,27.708333333333332,6.993333333333332,cl,-32.433,-71.233
fairhope,78.94666666666667,87.70833333333333,30.5,8.161666666666667,us,30.523,-87.903
roma,55.54291666666666,60.916666666666664,37.625,6.182916666666665,au,-26.567,148.788
ewo,83.44125000000001,49.416666666666664,54.416666666666664,4.4816666666666665,cg,-0.873,14.821
horqueta,75.95083333333334,36.166666666666664,21.958333333333332,5.881666666666665,py,-23.343,-57.06
karaul,43.35958333333334,66.58333333333333,88.33333333333333,12.50666666666667,ru,70.077,83.191
cockburn town,82.17958333333334,73.91666666666667,37.416666666666664,18.78,tc,21.467,-71.133
unguia,77.83541666666667,89.375,97.83333333333333,1.9541666666666668,co,8.043,-77.095
monte patria,62.867916666666666,31.75,100.0,2.4291666666666667,cl,-30.692,-70.947
harer,65.005,62.125,63.5,11.467916666666667,et,9.309,42.126
raurkela,83.52041666666668,75.625,79.16666666666667,5.9941666666666675,in,22.2,84.883
solenzo,77.21458333333332,76.875,94.125,5.275416666666665,bf,12.183,-4.083
bitam,71.53583333333333,88.95833333333333,89.75,2.87625,ga,2.083,11.483
lata,80.9025,80.95833333333333,66.45833333333333,11.058333333333335,sb,-10.717,165.833
erzurum,65.52499999999999,61.25,51.875,11.554166666666667,tr,39.909,41.277
leshukonskoye,63.1675,56.25,15.25,6.420833333333333,ru,64.899,45.762
nakamura,80.44124999999998,73.66666666666667,53.041666666666664,3.9462500000000005,jp,32.983,132.933
ovre ardal,58.64750000000001,79.5,69.125,5.771249999999999,no,61.317,7.8
kerchevskiy,56.42375000000001,61.458333333333336,58.75,6.278749999999999,ru,59.946,56.288
cobija,79.30874999999999,65.5,51.5,2.3566666666666665,bo,-11.033,-68.733
kalemie,72.17166666666667,50.208333333333336,8.083333333333334,8.023749999999998,cd,-5.933,29.2
bheramara,86.05250000000001,73.54166666666667,68.41666666666667,6.887499999999999,bd,24.033,88.967
maine-soroa,90.24458333333331,43.666666666666664,53.75,10.19,ne,13.218,12.027
klyuchi,67.26416666666667,71.79166666666667,71.5,4.638750000000002,ru,56.3,160.85
northam,59.420416666666675,59.291666666666664,28.291666666666668,14.435,au,-31.649,116.674
anchorage,52.36250000000001,72.375,45.833333333333336,4.264583333333333,us,61.218,-149.9
erdemli,85.55416666666666,59.375,0.0,7.331250000000001,tr,36.605,34.308
hulan,78.57500000000002,87.08333333333333,49.041666666666664,6.243333333333332,cn,45.983,126.6
dong hoi,83.00958333333332,80.25,33.541666666666664,6.962083333333332,vn,17.5,106.633
wanning,84.25208333333333,75.625,54.916666666666664,5.49125,cn,18.8,110.397
aliaga,83.87416666666665,41.0,0.0,10.929583333333333,tr,38.8,26.972
liwale,68.98916666666666,65.79166666666667,45.958333333333336,6.4991666666666665,tz,-9.767,37.933
amla,82.15916666666665,65.95833333333333,80.66666666666667,6.759583333333333,in,21.933,78.117
jawhar,76.41416666666666,89.0,92.04166666666667,3.4333333333333336,in,19.917,73.233
waipawa,43.337500000000006,80.29166666666667,76.41666666666667,9.395000000000001,nz,-41.412,175.515
nueva imperial,37.335833333333326,94.79166666666667,59.166666666666664,2.25125,cl,-38.733,-72.95
kodiak,51.80166666666665,83.5,90.41666666666667,10.71125,us,57.79,-152.407
bratsk,61.114583333333336,73.625,33.708333333333336,4.959999999999999,ru,56.15,101.609
piedecuesta,68.68374999999999,89.875,82.375,3.8087499999999994,co,6.988,-73.05
midland,78.18166666666666,68.25,21.083333333333332,8.720833333333333,us,31.997,-102.078
lorengau,82.23916666666668,78.29166666666667,87.54166666666667,8.173750000000002,pg,-2.017,147.267
kisanga,74.99624999999999,65.58333333333333,42.875,3.0604166666666672,tz,-7.433,37.7
jeremoabo,72.60583333333332,79.25,89.66666666666667,8.307916666666667,br,-10.067,-38.35
yingcheng,84.42250000000001,75.29166666666667,97.33333333333333,2.765000000000001,cn,24.166,113.413
samarai,79.64666666666666,84.875,57.0,11.789583333333335,pg,-10.617,150.667
khonuu,70.8320833333333,66.625,85.91666666666667,10.886249999999999,ru,66.45,143.1
tekeli,65.17583333333334,65.83333333333333,78.875,7.56,kz,44.83,78.824
olinda,76.54999999999997,73.625,53.75,10.214583333333334,br,-8.017,-34.85
gara,77.13541666666667,61.083333333333336,6.666666666666667,7.722500000000001,hu,46.032,19.043
bouloupari,67.55708333333335,86.04166666666667,69.16666666666667,4.114583333333332,nc,-21.867,166.05
jadu,79.95708333333333,37.625,0.0,10.074583333333335,ly,31.95,12.017
arroyos y esteros,71.86416666666668,63.958333333333336,12.166666666666666,6.371250000000001,py,-25.067,-57.1
watertown,69.20166666666667,74.20833333333333,23.916666666666668,4.922916666666667,us,44.899,-97.115
punta arenas,33.41458333333332,90.08333333333333,56.666666666666664,24.696249999999996,cl,-53.15,-70.917
lardos,81.16916666666668,74.33333333333333,5.833333333333333,12.80333333333334,gr,36.1,28.017
chalmette,81.50624999999998,77.41666666666667,19.375,6.995833333333333,us,29.942,-89.963
dinar,79.70666666666666,36.25,20.416666666666668,9.157916666666667,tr,38.065,30.166
kavali,80.3,74.41666666666667,99.95833333333333,12.89583333333333,in,14.917,79.983
zahnitkiv,74.02916666666667,70.29166666666667,35.583333333333336,5.537083333333334,ua,48.048,28.888
agva,76.57875,81.0,47.083333333333336,4.079166666666667,tr,41.138,29.857
jacareacanga,82.75916666666666,48.25,93.45833333333333,2.7654166666666664,br,-6.267,-57.65
boston,63.44666666666666,83.375,44.625,6.2799999999999985,gb,52.983,-0.017
kasama,58.88416666666668,56.916666666666664,3.875,6.0370833333333325,zm,-10.2,31.2
karachev,78.875,54.583333333333336,4.166666666666667,4.417499999999999,ru,53.123,34.985
stornoway,58.40208333333334,89.5,71.125,8.776666666666667,gb,58.217,-6.367
mount gambier,52.4,63.541666666666664,67.75,15.440833333333337,au,-37.832,140.779
aitape,80.83333333333333,78.83333333333333,75.5,5.48875,pg,-3.133,142.35
orizona,65.66541666666666,37.75,0.0,4.0183333333333335,br,-17.05,-48.3
paamiut,42.716666666666676,92.70833333333333,100.0,6.599166666666666,gl,62.0,-49.75
alakurtti,66.5125,64.0,94.08333333333333,4.534583333333333,ru,66.967,30.349
kasongo-lunda,76.82,28.166666666666668,0.125,3.284583333333334,cd,-6.467,16.817
muhos,74.04666666666667,67.41666666666667,23.958333333333332,6.904583333333334,fi,64.767,26.1
spartanburg,78.03166666666667,75.66666666666667,30.541666666666668,5.582083333333333,us,34.949,-81.932
madinat sittah uktubar,86.21416666666666,56.208333333333336,10.0,7.865416666666667,eg,29.817,31.05
paso de carrasco,47.252916666666664,65.70833333333333,1.5833333333333333,4.0225,uy,-34.86,-56.052
sooke,61.44916666666666,78.33333333333333,15.833333333333334,27.715,ca,48.383,-123.733
qaqortoq,47.52500000000001,79.625,76.875,4.841249999999999,gl,60.717,-46.033
cache creek,72.43750000000001,42.375,88.75,6.616666666666667,ca,50.8,-121.317
maniitsoq,44.373333333333335,74.04166666666667,94.29166666666667,4.696666666666666,gl,65.417,-52.9
diapaga,81.52958333333335,67.54166666666667,72.58333333333333,4.871666666666668,bf,12.071,1.789
tucuma,77.94958333333334,85.41666666666667,89.83333333333333,7.090416666666666,br,-0.183,-50.05
nimaparha,85.15666666666665,84.04166666666667,51.666666666666664,4.022499999999999,in,20.067,86.017
rovaniemi,69.50000000000001,72.625,20.041666666666668,8.58375,fi,66.5,25.717
paoua,73.58125,80.54166666666667,82.33333333333333,3.5887499999999997,cf,7.25,16.433
curuca,77.96583333333332,84.125,96.29166666666667,6.215000000000001,br,-0.717,-47.833
pietarsaari,69.51125,80.125,31.291666666666668,6.234583333333333,fi,63.65,22.683
dromolaxia,83.50249999999998,71.66666666666667,11.666666666666666,10.789583333333333,cy,34.879,33.583
valley city,72.16208333333334,67.875,25.25,6.960416666666667,us,46.923,-98.003
katherine,69.95,41.041666666666664,70.70833333333333,7.909583333333334,au,-14.465,132.263
prince rupert,57.82291666666666,83.70833333333333,76.16666666666667,3.8924999999999987,ca,54.317,-130.333
antigonish,63.54666666666666,87.95833333333333,84.875,3.1933333333333334,ca,45.617,-61.967
ivnya,79.62500000000001,58.166666666666664,10.833333333333334,6.989583333333332,ru,51.063,36.134
ust-kamchatsk,56.532916666666665,77.20833333333333,40.791666666666664,8.654583333333333,ru,56.237,162.519
barcelona,78.90958333333333,81.95833333333333,71.04166666666667,5.918333333333333,ve,10.133,-64.7
copperas cove,81.21625000000002,75.95833333333333,35.0,8.294583333333334,us,31.124,-97.903
altamira,79.5775,77.625,63.125,3.1004166666666664,br,-3.2,-52.2
hendaye,68.94208333333331,79.91666666666667,34.791666666666664,5.5612499999999985,fr,43.372,-1.774
limbang,82.4,87.33333333333333,75.0,4.168333333333332,my,4.75,115.0
shieli,82.18708333333335,29.75,3.125,9.914166666666665,kz,44.167,66.75
laurel,76.61375000000002,88.20833333333333,60.458333333333336,6.8112499999999985,us,31.694,-89.131
dharchula,74.81416666666668,94.0,98.41666666666667,1.865,in,29.85,80.533
nuevo progreso,80.54416666666667,81.91666666666667,95.33333333333333,6.282083333333332,mx,23.167,-97.95
gawler,54.140000000000015,63.333333333333336,24.666666666666668,12.947500000000003,au,-34.603,138.749
rockhampton,58.175000000000004,68.25,8.541666666666666,5.089166666666665,au,-23.38,150.506
linguere,86.27208333333333,58.583333333333336,29.291666666666668,5.755000000000002,sn,15.4,-15.117
vaitape,80.05458333333333,73.625,23.833333333333332,20.76,pf,-16.517,-151.75
goldsboro,78.92791666666668,87.75,45.583333333333336,4.833749999999999,us,35.385,-77.993
batken,78.2675,36.416666666666664,38.583333333333336,5.696666666666666,kg,40.05,70.833
ruteng,64.86125,78.0,46.875,1.6220833333333335,id,-8.614,120.472
alihe,69.67625,64.79166666666667,70.33333333333333,3.580416666666668,cn,50.567,123.717
longyearbyen,43.025000000000006,74.66666666666667,57.5,15.438750000000008,sj,78.217,15.633
pyinmana,81.24124999999998,85.0,63.333333333333336,3.426666666666667,mm,19.733,96.217
lyaskelya,73.01708333333333,60.75,24.75,5.222083333333333,ru,61.767,31.017
dongying,85.15874999999997,65.70833333333333,99.125,10.367916666666668,cn,37.456,118.486
lubao,77.68083333333333,23.166666666666668,15.916666666666666,6.304166666666666,cd,-5.367,25.75
san fernando,82.60583333333334,74.125,96.5,15.528749999999997,mx,24.85,-98.15
taburao,81.64999999999999,80.91666666666667,64.79166666666667,6.8570833333333345,ki,1.817,173.017
juneau,54.70708333333334,82.33333333333333,86.25,7.32125,us,58.302,-134.42
san patricio,83.18041666666666,80.375,72.16666666666667,6.094583333333333,mx,19.217,-104.7
igrim,60.03041666666667,46.916666666666664,39.25,4.6775,ru,63.191,64.416
yubari,67.80874999999997,99.75,75.625,8.343333333333335,jp,43.038,141.958
paysandu,50.30916666666667,67.95833333333333,10.083333333333334,4.264166666666665,uy,-32.321,-58.076
terme,76.30208333333333,74.95833333333333,53.125,7.6725,tr,41.209,36.974
marietta,72.13791666666668,80.66666666666667,53.875,5.842083333333334,us,39.415,-81.455
port hedland,71.3,54.458333333333336,45.416666666666664,6.235,au,-20.312,118.611
dingzhou,77.60000000000001,87.29166666666667,85.29166666666667,7.3625,cn,38.513,114.996
tias,74.35624999999999,79.79166666666667,42.791666666666664,7.240833333333332,es,28.961,-13.645
saskatoon,79.20083333333334,44.333333333333336,35.5,12.085416666666667,ca,52.133,-106.667
datong,78.08958333333332,53.625,99.08333333333333,8.742083333333333,cn,40.094,113.291
kavaratti,82.44583333333333,79.41666666666667,100.0,23.174166666666668,in,10.567,72.617
vila,75.05,85.58333333333333,42.5,3.494999999999999,vu,-17.733,168.317
azimur,85.91416666666669,45.666666666666664,81.33333333333333,6.602916666666668,ma,33.29,-8.342
yarmouth,63.485833333333325,84.29166666666667,48.416666666666664,8.231250000000001,ca,43.833,-66.117
kuytun,79.81500000000001,48.208333333333336,60.583333333333336,8.110000000000001,cn,44.417,85.0
sao joao do paraiso,66.30166666666668,54.25,24.791666666666668,4.156666666666665,br,-15.317,-42.017
kampene,76.94458333333331,31.791666666666668,75.5,3.5458333333333325,cd,-3.6,26.667
bhag,106.95375,25.041666666666668,11.125,8.656250000000002,pk,29.041,67.824
myre,54.19666666666665,88.16666666666667,44.375,14.290833333333339,no,69.104,15.949
fuyang,91.3745833333333,66.0,4.166666666666667,5.776666666666666,cn,30.053,119.952
ostrovskoye,69.06250000000001,54.083333333333336,2.4583333333333335,6.189999999999999,ru,57.806,42.243
lady lake,80.145,80.33333333333333,11.916666666666666,4.349166666666666,us,28.917,-81.923
aztec,81.17333333333333,24.958333333333332,1.0,9.650833333333333,us,36.822,-107.992
atbasar,72.90750000000001,48.958333333333336,79.79166666666667,6.9437500000000005,kz,51.8,68.333
chingola,59.96791666666666,50.25,6.291666666666667,6.923749999999999,zm,-12.533,27.85
puqi,87.47583333333334,64.20833333333333,91.83333333333333,11.790833333333333,cn,29.717,113.883
bom jesus,78.98833333333333,45.875,49.833333333333336,4.275833333333334,br,-9.067,-44.367
kurara,91.44458333333334,56.416666666666664,97.33333333333333,13.70583333333333,in,25.983,79.983
san cristobal,70.96499999999999,75.91666666666667,28.708333333333332,12.40791666666667,ec,-0.917,-89.567
amazar,64.45833333333333,51.333333333333336,57.791666666666664,3.16,ru,53.858,120.875
malbork,66.37291666666665,74.5,9.25,5.751666666666668,pl,54.036,19.035
mushie,83.32791666666667,43.041666666666664,8.208333333333334,3.342916666666667,cd,-3.017,16.9
zyryanskoye,67.24249999999999,65.29166666666667,62.333333333333336,2.5975000000000006,ru,56.831,86.626
saint-jean-port-joli,65.48666666666668,68.0,70.41666666666667,7.805416666666666,ca,47.2,-70.267
filingue,89.00916666666667,48.916666666666664,59.958333333333336,7.048750000000001,ne,14.35,3.317
subate,72.49416666666666,74.29166666666667,12.416666666666666,4.0225,lv,56.017,25.9
esna,93.2,26.25,0.0,6.432500000000002,eg,25.293,32.553
truro,68.55375,77.5,74.33333333333333,4.218749999999999,ca,45.367,-63.3
eldikan,54.945833333333326,91.5,99.75,4.69875,ru,60.8,135.183
roblin,73.72666666666667,55.333333333333336,9.208333333333334,9.063333333333333,ca,51.233,-101.35
rodrigues alves,79.42666666666666,43.791666666666664,29.416666666666668,2.0475,br,-11.9,-65.0
minas,47.39416666666667,74.79166666666667,0.8333333333333334,3.833749999999999,uy,-34.37,-55.225
ilebo,78.565,27.375,20.583333333333332,2.0808333333333335,cd,-4.317,20.583
bandar-e torkaman,81.2,67.16666666666667,52.916666666666664,6.40125,ir,36.902,54.071
niquero,80.43499999999999,74.875,44.333333333333336,4.837083333333333,cu,20.043,-77.583
betanzos,49.00000000000001,67.58333333333333,5.958333333333333,5.968333333333333,bo,-19.551,-65.453
toyooka,76.63458333333334,89.79166666666667,69.79166666666667,4.376666666666667,jp,35.533,134.833
cerrito,69.73208333333334,59.458333333333336,55.625,6.704583333333332,py,-27.317,-57.667
suoyarvi,77.56083333333335,49.916666666666664,19.75,5.4745833333333325,ru,62.083,32.35
kropotkin,60.70208333333334,58.5,83.20833333333333,3.929583333333333,ru,58.509,115.322
helsinki,71.50083333333332,66.08333333333333,12.5,11.030416666666667,fi,60.176,24.934
pingliang,76.24916666666668,53.041666666666664,48.625,4.156249999999999,cn,35.539,106.686
gladstone,62.48541666666669,64.91666666666667,35.833333333333336,6.984166666666668,au,-23.848,151.256
aksarka,53.19291666666667,53.166666666666664,37.833333333333336,13.130416666666664,ru,66.561,67.797
chilliwack,66.09041666666666,63.875,0.0,3.9958333333333322,ca,49.167,-121.95
kainantu,64.42166666666667,74.29166666666667,67.16666666666667,3.167916666666667,pg,-6.283,145.867
bolshoy uluy,65.325,67.04166666666667,69.0,2.6645833333333333,ru,56.656,90.578
yokadouma,73.32083333333334,86.66666666666667,52.791666666666664,2.34625,cm,3.517,15.05
tilichiki,62.00458333333332,48.791666666666664,44.166666666666664,3.5245833333333345,ru,60.467,166.1
yagodnoye,66.05458333333334,60.166666666666664,19.666666666666668,9.031666666666668,ru,62.55,149.667
capoterra,82.58291666666668,52.333333333333336,0.0,10.070416666666665,it,39.174,8.971
aketi,74.66958333333334,83.875,99.04166666666667,1.8245833333333337,cd,2.733,23.767
penhold,65.22874999999999,64.91666666666667,46.416666666666664,7.338333333333335,ca,52.133,-113.867
det udom,85.10375,77.5,18.541666666666668,4.8725,th,14.906,105.078
taltal,58.46791666666667,77.33333333333333,93.83333333333333,3.1837500000000003,cl,-25.4,-70.483
sveti nikole,77.67500000000001,60.75,12.291666666666666,3.011249999999999,mk,41.865,21.943
tulle,65.89625,70.70833333333333,8.416666666666666,4.297916666666666,fr,45.27,1.773
qurayyat,91.15083333333332,64.58333333333333,32.125,6.284166666666664,om,23.263,58.916
mbengwi,66.08708333333334,92.04166666666667,67.16666666666667,2.4291666666666667,cm,6.017,10.0
am timan,78.83125,73.54166666666667,88.79166666666667,8.515416666666667,td,11.033,20.283
abong mbang,71.36708333333334,88.66666666666667,71.33333333333333,2.286666666666666,cm,3.983,13.183
sorong,81.44291666666666,79.0,80.83333333333333,4.462083333333334,id,-0.883,131.25
guamo,79.13583333333331,65.625,46.0,2.32875,co,4.031,-74.97
calamar,74.65666666666668,90.66666666666667,76.29166666666667,1.7466666666666664,co,1.96,-72.653
cam pha,86.30000000000001,78.875,30.75,4.887499999999998,vn,21.017,107.317
nova olimpia,76.65333333333334,35.083333333333336,83.125,3.0975,br,-14.817,-57.333
petropavlovsk-kamchatskiy,63.42499999999999,69.16666666666667,25.0,6.80375,ru,53.045,158.648
buffalo,71.58708333333334,56.041666666666664,8.416666666666666,6.6520833333333345,us,45.172,-93.874
gornja koprivna,71.41375000000001,77.375,47.25,2.2041666666666666,ba,45.012,15.957
verkhnetulomskiy,57.87500000000001,69.41666666666667,29.791666666666668,5.90125,ru,68.607,31.796
stephenville,81.25125000000001,67.875,24.5,6.501666666666666,us,32.221,-98.202
bozuyuk,72.33833333333335,57.041666666666664,8.333333333333334,7.432500000000001,tr,39.908,30.037
komatipoort,65.90458333333333,57.208333333333336,0.0,4.403333333333333,za,-25.433,31.955
shakawe,61.919583333333314,30.208333333333332,0.0,5.399166666666667,bw,-18.367,21.85
swan hill,49.199999999999996,59.833333333333336,73.79166666666667,9.184583333333334,au,-35.339,143.56
kitimat,63.74375,68.04166666666667,69.79166666666667,7.5270833333333345,ca,54.0,-128.7
belushya guba,40.39416666666668,79.91666666666667,98.75,24.314999999999998,ru,71.539,52.332
novopokrovka,73.85541666666667,78.70833333333333,64.08333333333333,3.152083333333333,ru,45.853,134.509
odienne,74.64125,86.25,69.625,2.8091666666666675,ci,9.505,-7.564
santa isabel,82.58125000000001,34.458333333333336,53.25,3.8795833333333323,mx,28.383,-113.35
fevralsk,68.25458333333333,90.125,68.16666666666667,3.598333333333334,ru,52.467,130.717
santa catarina de tepehuanes,70.51541666666668,56.625,95.66666666666667,5.489583333333333,mx,25.35,-105.733
young,46.199166666666684,79.375,62.875,4.569166666666667,au,-34.313,148.301
young,46.199166666666684,79.375,62.875,4.569166666666667,uy,-32.683,-57.633
young,50.48374999999999,68.54166666666667,6.708333333333333,3.9533333333333327,au,-34.313,148.301
young,50.48374999999999,68.54166666666667,6.708333333333333,3.9533333333333327,uy,-32.683,-57.633
aguas belas,71.02041666666666,83.33333333333333,57.791666666666664,6.515000000000001,br,-9.117,-37.117
mafra,54.10541666666666,82.70833333333333,0.375,1.2120833333333336,br,-26.118,-49.802
shiyan,79.05833333333332,77.79166666666667,72.95833333333333,3.9637499999999997,cn,32.648,110.778
khor,95.13958333333335,64.25,9.375,7.386250000000001,qa,25.684,51.506
yuancheng,84.4575,75.33333333333333,98.45833333333333,3.1266666666666656,cn,23.733,114.683
minbu,86.77916666666668,66.83333333333333,72.41666666666667,7.4750000000000005,mm,20.183,94.883
jonkoping,62.12291666666667,82.25,86.04166666666667,8.816666666666665,se,57.783,14.183
atasu,69.08708333333334,55.208333333333336,87.625,7.584583333333332,kz,48.681,71.643
saint-gaudens,71.52958333333332,79.41666666666667,28.125,6.377083333333332,fr,43.11,0.725
kristiansand,63.54041666666665,64.04166666666667,21.958333333333332,8.345,no,58.167,8.0
arlit,93.80875000000003,24.333333333333332,7.375,5.054583333333333,ne,18.733,7.368
pilar,69.99416666666666,58.375,72.0,5.61,py,-26.867,-58.383
kingisepp,75.92208333333333,58.5,13.333333333333334,6.138333333333333,ru,59.373,28.613
novyy nekouz,71.33916666666667,55.583333333333336,1.75,5.774583333333333,ru,57.903,38.07
goderich,78.75625000000001,81.91666666666667,92.875,7.494166666666666,sl,8.432,-13.29
tabiauea,81.64999999999999,80.91666666666667,64.79166666666667,6.8570833333333345,ki,0.9,173.033
meadow lake,71.95166666666667,61.5,49.583333333333336,8.87375,ca,54.13,-108.435
cheltenham,59.71291666666667,89.70833333333333,57.416666666666664,5.194583333333333,gb,51.9,-2.083
luocheng,76.43041666666667,91.0,76.29166666666667,1.4329166666666666,cn,29.385,104.029
ahipara,53.262083333333344,89.08333333333333,99.0,17.499166666666664,nz,-35.167,173.167
novobureyskiy,73.54875,82.83333333333333,53.625,3.1808333333333336,ru,49.798,129.877
cheyenne,66.80833333333332,48.041666666666664,1.0,7.570833333333333,us,41.14,-104.82
liliani,102.43541666666668,31.0,38.416666666666664,7.199583333333334,pk,32.207,72.954
rio gallegos,36.12500000000001,68.08333333333333,6.458333333333333,28.817916666666672,ar,-51.623,-69.218
artesia,79.71166666666669,69.625,28.458333333333332,8.949583333333335,us,32.842,-104.403
charlottetown,64.31166666666667,78.54166666666667,58.541666666666664,4.770833333333332,ca,46.233,-63.133
marck,61.64375000000001,82.45833333333333,61.25,4.166666666666666,fr,50.949,1.943
fort frances,71.61874999999999,61.583333333333336,27.666666666666668,5.493333333333333,ca,48.617,-93.417
griffith,48.63375000000001,81.20833333333333,54.5,7.097500000000001,au,-34.289,146.051
sungurlu,73.53416666666668,55.25,17.0,5.925,tr,40.167,34.374
certeju de sus,74.19458333333331,63.208333333333336,65.04166666666667,3.7183333333333333,ro,45.967,22.967
nabire,78.31625000000001,87.04166666666667,95.875,2.5975,id,-3.367,135.483
kribi,78.05791666666667,82.79166666666667,58.541666666666664,6.17875,cm,2.95,9.917
powassan,66.83958333333334,67.66666666666667,34.5,5.031249999999999,ca,46.067,-79.35
pocone,76.54458333333332,27.25,71.91666666666667,2.681666666666666,br,-16.26,-56.627
mubi,77.83375,70.75,64.04166666666667,5.949583333333333,ng,10.268,13.264
ende,78.41874999999999,68.5,34.416666666666664,3.0679166666666675,id,-8.843,121.662
bababe,88.01458333333333,45.541666666666664,90.33333333333333,11.100416666666666,mr,16.333,-13.95
misratah,81.16208333333336,64.58333333333333,0.0,14.996249999999998,ly,32.378,15.091
mchinji,59.110833333333325,59.791666666666664,36.916666666666664,4.786666666666667,mw,-13.717,32.9
shimonoseki,80.48791666666668,79.66666666666667,66.875,5.56125,jp,33.95,130.95
north battleford,73.62499999999999,54.75,29.666666666666668,10.455416666666666,ca,52.767,-108.283
vaxjo,63.058333333333344,80.875,69.875,5.586666666666666,se,56.883,14.817
piryion,82.80250000000001,49.5,0.0,11.647500000000003,gr,38.226,25.995
trogir,78.71999999999998,52.25,5.833333333333333,7.941250000000001,hr,43.513,16.252
ponta delgada,67.925,80.0,44.166666666666664,15.152500000000003,pt,37.733,-25.667
sontra,62.32583333333334,92.0,66.83333333333333,3.622499999999999,de,51.067,9.933
sivas,63.09291666666667,73.08333333333333,20.166666666666668,9.197916666666668,tr,39.748,37.016
basoko,75.2975,82.5,96.16666666666667,2.8508333333333336,cd,1.233,23.6
manono,75.83624999999999,24.625,2.7916666666666665,5.582916666666667,cd,-7.3,27.417
alexander city,76.41666666666666,93.33333333333333,63.875,5.798749999999999,us,32.944,-85.954
bundibugyo,72.05541666666666,78.45833333333333,94.25,2.4633333333333334,ug,0.741,30.042
dzialdowo,67.92500000000001,76.5,3.3333333333333335,5.1308333333333325,pl,53.24,20.17
afmadu,80.58208333333334,62.958333333333336,60.25,14.079583333333332,so,0.517,42.071
moosomin,74.82499999999999,54.5,0.0,9.156666666666668,ca,50.15,-101.667
energetik,66.81625000000001,73.41666666666667,58.708333333333336,10.796666666666667,ru,51.745,58.793
zachary,80.72874999999999,83.41666666666667,48.5,8.401250000000001,us,30.648,-91.156
ghanzi,58.473333333333336,27.625,0.0,7.2475,bw,-21.567,21.783
zeya,66.84666666666668,73.20833333333333,59.208333333333336,3.7845833333333334,ru,53.75,127.267
hebi,77.47041666666668,87.625,71.79166666666667,4.6475,cn,35.899,114.192
nsanje,71.99875000000002,64.375,20.041666666666668,4.798333333333334,mw,-16.917,35.267
evensk,50.627500000000005,93.83333333333333,99.45833333333333,7.208333333333333,ru,61.95,159.233
kulu,76.49041666666666,84.75,79.29166666666667,2.830416666666667,in,31.967,77.1
tipp city,71.7625,77.29166666666667,85.625,9.062916666666668,us,39.958,-84.172
calmar,68.13791666666667,69.0,71.45833333333333,7.575833333333333,ca,53.25,-113.783
mariestad,62.41375,74.16666666666667,77.875,8.585833333333335,se,58.7,13.817
bachaquero,82.09208333333332,70.79166666666667,99.83333333333333,4.571666666666666,ve,9.968,-71.116
carmarthen,59.53541666666666,93.58333333333333,76.66666666666667,9.780833333333332,gb,51.859,-4.312
anito,81.9575,83.25,68.33333333333333,7.348750000000003,ph,12.45,125.289
porto novo,75.8,63.791666666666664,50.833333333333336,12.65791666666667,cv,17.033,-25.067
pangai,76.43291666666666,84.5,40.0,10.195833333333335,to,-19.8,-174.35
brokopondo,78.11375,88.08333333333333,33.375,4.983333333333333,sr,5.067,-54.967
havre,77.33291666666668,35.958333333333336,1.0,10.200833333333334,us,48.55,-109.683
januaria,71.29833333333333,37.958333333333336,1.375,3.1745833333333326,br,-15.483,-44.367
sonari,80.93749999999999,84.54166666666667,81.25,5.0079166666666675,in,27.067,95.033
lucea,82.6725,66.58333333333333,20.0,11.795416666666668,jm,18.45,-78.167
ibra,95.24916666666671,37.875,31.458333333333332,6.951250000000002,om,22.69,58.547
sao miguel do araguaia,76.73541666666668,30.791666666666668,10.166666666666666,4.8654166666666665,br,-13.317,-50.217
nikolayevsk-na-amure,69.38499999999999,86.33333333333333,85.33333333333333,3.0379166666666664,ru,53.141,140.73
bom jardim,80.73583333333335,40.166666666666664,50.0,5.136666666666666,br,-7.017,-46.483
altonia,68.41458333333334,57.666666666666664,3.0,4.29875,br,-23.933,-53.9
creel,64.72666666666667,66.70833333333333,45.25,5.657499999999999,mx,27.75,-107.633
janakpur,82.2675,79.16666666666667,94.375,8.06875,np,26.7,85.917
tagab,85.7,20.0,0.0,8.545000000000002,af,34.855,69.649
norton shores,69.09708333333336,59.333333333333336,65.54166666666667,9.830833333333333,us,43.169,-86.264
maloh,82.70916666666666,76.29166666666667,74.0,6.041250000000002,ph,9.056,122.985
turtas,54.170416666666675,75.45833333333333,97.25,6.9487499999999995,ru,58.942,69.132
oleksandrivka,77.11125,56.25,16.083333333333332,6.658333333333334,ua,48.963,32.235
richards bay,66.34791666666666,70.70833333333333,0.0,7.437500000000001,za,-28.775,32.054
hobbs,75.70125,77.375,40.375,8.745833333333335,us,32.703,-103.136
margherita,80.64708333333333,85.0,78.79166666666667,4.894999999999999,in,27.283,95.683
avera,74.58916666666669,76.75,1.8333333333333333,12.849166666666667,pf,-22.45,-151.35
toungoo,80.85208333333334,86.75,57.5,3.5500000000000007,mm,18.933,96.433
harpanahalli,72.10458333333334,84.54166666666667,99.83333333333333,16.17416666666666,in,14.8,75.983
jiddah,93.72500000000002,41.416666666666664,36.458333333333336,10.693750000000001,sa,21.517,39.219
sheopur,93.27208333333333,49.916666666666664,91.875,6.527083333333334,in,25.667,76.7
tyret pervaya,63.797083333333326,70.91666666666667,78.75,3.7425,ru,53.67,102.311
westport,46.91,68.125,73.5,4.401249999999999,nz,-41.75,171.567
hacienda heights,75.52250000000001,60.666666666666664,13.375,6.715000000000001,us,33.993,-117.968
bushehr,94.13458333333334,69.29166666666667,14.291666666666666,9.66,ir,28.968,50.839
olovyannaya,66.07791666666667,53.541666666666664,97.54166666666667,5.496666666666666,ru,50.95,115.567
madarounfa,82.95041666666664,65.58333333333333,57.208333333333336,8.410416666666666,ne,13.307,7.157
pastavy,74.69666666666667,65.45833333333333,8.791666666666666,3.107916666666666,by,55.116,26.834
jiangyou,79.22749999999999,84.58333333333333,96.33333333333333,2.8425,cn,31.767,104.717
shobara,78.25291666666665,82.91666666666667,74.75,4.025416666666666,jp,34.85,133.017
murdochville,64.09999999999998,67.70833333333333,70.33333333333333,7.961666666666665,ca,48.967,-65.517
sosenskiy,76.775,72.29166666666667,11.5,4.319583333333331,ru,54.059,35.962
santiago,56.43083333333335,96.58333333333333,89.83333333333333,2.6029166666666668,co,1.148,-77.004
fizesu gherlii,74.18958333333332,69.79166666666667,9.166666666666666,3.538333333333332,ro,47.017,23.983
port-cartier,58.77083333333332,84.08333333333333,64.91666666666667,4.389583333333332,ca,50.017,-66.867
skelleftea,67.67916666666666,87.375,53.708333333333336,6.169583333333332,se,64.767,20.95
sao francisco,70.94708333333331,37.5,0.08333333333333333,2.7954166666666667,br,-15.95,-44.867
along,75.60125,87.45833333333333,61.375,1.2129166666666666,in,28.167,94.767
san borja,79.59541666666665,65.91666666666667,62.875,2.015,bo,-14.817,-66.85
semey,68.52499999999999,75.75,34.583333333333336,7.057083333333334,kz,50.411,80.228
nortelandia,74.47125,35.791666666666664,58.125,2.748333333333333,br,-14.417,-56.8
honiara,79.87458333333335,77.70833333333333,85.66666666666667,6.385833333333333,sb,-9.433,159.95
padilla,58.69,76.04166666666667,37.583333333333336,4.587916666666666,bo,-19.3,-64.3
capitan bado,70.51125,42.041666666666664,21.166666666666668,8.831666666666665,py,-23.267,-55.533
partizanskoye,63.12666666666667,76.29166666666667,5.375,3.2154166666666666,ru,55.497,94.392
bulawayo,56.900416666666665,39.541666666666664,0.0,7.1954166666666675,zw,-20.15,28.583
kandrian,79.90291666666666,81.91666666666667,85.16666666666667,7.93333333333333,pg,-6.217,149.55
orlik,61.65749999999999,64.08333333333333,97.25,3.215416666666666,ru,52.518,99.825
bekasi,82.03666666666668,76.375,34.791666666666664,8.522916666666669,id,-6.235,106.99
ceahlau,71.97666666666667,53.875,14.041666666666666,3.689583333333333,ro,47.05,25.967
union de san antonio,65.96374999999999,78.95833333333333,81.75,5.582083333333333,mx,21.1,-101.967
awjilah,88.04416666666668,45.375,0.0,11.038333333333332,ly,29.108,21.287
oktyabrskiy,69.70125,55.458333333333336,61.5,4.17125,ru,61.091,43.168
khatima,86.10666666666667,65.79166666666667,74.29166666666667,8.479166666666666,in,28.917,79.967
tello,76.57916666666667,71.70833333333333,62.541666666666664,2.5962500000000004,co,3.067,-75.138
atikokan,73.94625,46.875,24.791666666666668,5.345833333333334,ca,48.75,-91.617
kadykchan,63.022916666666674,63.416666666666664,25.166666666666668,12.64625,ru,63.033,146.833
darnah,79.62833333333334,66.25,0.0,15.776666666666669,ly,32.765,22.639
kaz,66.52541666666667,78.58333333333333,98.5,3.252916666666667,ru,52.911,87.311
avare,61.83041666666667,50.041666666666664,0.041666666666666664,4.097916666666667,br,-23.083,-48.917
kalianget,82.61,71.45833333333333,73.0,14.220416666666667,id,-7.05,113.933
suileng,74.23958333333333,82.66666666666667,68.5,7.115416666666666,cn,47.167,127.3
timra,68.97500000000001,79.79166666666667,55.791666666666664,8.675833333333332,se,62.478,17.307
ozgon,75.9775,47.625,52.25,5.589166666666665,kg,40.767,73.3
santa rosa,79.76166666666666,70.79166666666667,60.125,2.704166666666666,bo,-14.167,-66.883
ales,76.67999999999999,52.041666666666664,0.0,7.720416666666668,fr,44.131,4.087
mae ramat,77.47625000000001,95.58333333333333,70.75,2.9600000000000004,th,16.984,98.517
kyra,63.330000000000005,88.125,73.70833333333333,2.9845833333333345,ru,49.578,111.975
sibu,80.40249999999999,85.70833333333333,40.0,3.504999999999999,my,2.3,111.817
ndjole,77.16708333333334,77.875,73.5,3.0687499999999996,ga,-0.183,10.75
kiruna,63.725000000000016,74.08333333333333,75.20833333333333,4.456666666666666,se,67.85,20.217
nyrob,55.94583333333333,61.333333333333336,33.166666666666664,5.6137500000000005,ru,60.733,56.72
mailsi,106.59833333333334,26.166666666666668,49.708333333333336,9.748333333333333,pk,29.8,72.176
druskininkai,70.21541666666666,82.5,36.041666666666664,6.386666666666667,lt,54.017,23.967
bazarnyye mataki,65.90375,58.791666666666664,19.458333333333332,11.877500000000003,ru,54.883,49.933
north bend,58.42499999999999,86.95833333333333,66.0,17.789583333333336,us,43.407,-124.223
corinth,75.63749999999999,87.5,68.875,6.04625,us,34.934,-88.522
kouango,75.57125,76.0,97.91666666666667,2.587083333333333,cf,4.967,19.983
barahona,81.10375,72.95833333333333,22.166666666666668,8.77875,do,18.2,-71.1
goundi,77.78333333333333,78.20833333333333,98.25,5.078333333333333,td,9.367,17.367
plast,60.19874999999999,80.66666666666667,99.125,14.303333333333335,ru,54.327,60.867
arman,54.07166666666666,91.45833333333333,99.54166666666667,3.0979166666666664,ru,59.7,150.167
sarakhs,88.24833333333333,30.166666666666668,0.5416666666666666,7.568333333333335,ir,36.545,61.158
tadpatri,79.49374999999999,70.75,99.625,16.103333333333335,in,14.917,78.017
grajau,81.98291666666665,44.666666666666664,61.416666666666664,4.5704166666666675,br,-5.817,-46.133
jonuta,81.36666666666666,66.375,42.791666666666664,9.612500000000004,mx,18.083,-92.133
santa maria,74.17541666666666,70.41666666666667,59.583333333333336,9.593749999999998,cv,16.6,-22.9
ribas do rio pardo,69.98291666666667,35.166666666666664,0.0,4.645416666666665,br,-20.45,-53.767
mawlaik,81.27749999999999,89.95833333333333,85.75,1.1395833333333336,mm,23.633,94.417
kangaatsiaq,40.07749999999999,80.54166666666667,83.58333333333333,10.830416666666665,gl,68.3,-53.467
trencin,65.51625,87.16666666666667,29.666666666666668,5.468749999999999,sk,48.9,18.033
angoche,73.97416666666668,78.41666666666667,60.375,10.33875,mz,-16.233,39.909
basco,84.4325,78.58333333333333,86.0,14.70583333333333,ph,20.449,121.97
bullhead city,104.09833333333331,18.5,13.083333333333334,10.245416666666669,us,35.148,-114.567
sharan,65.61874999999998,65.54166666666667,22.666666666666668,11.3125,ru,54.817,54.0
pocinhos,73.73833333333332,73.625,47.916666666666664,10.002500000000001,br,-7.067,-36.05
ntcheu,61.67250000000001,62.541666666666664,29.875,5.6816666666666675,mw,-14.817,34.633
urdoma,64.65833333333332,52.875,4.416666666666667,5.596249999999999,ru,61.753,48.544
balakhninskiy,62.96666666666665,72.58333333333333,86.79166666666667,2.745416666666667,ru,58.011,114.277
severo-yeniseyskiy,61.307083333333345,68.20833333333333,94.83333333333333,5.839583333333333,ru,60.373,93.041
klaebu,61.6825,88.0,78.41666666666667,10.722500000000002,no,64.083,11.733
ust-omchug,58.685833333333335,77.75,89.95833333333333,6.7654166666666695,ru,61.15,149.633
kuala selangor,79.38583333333332,83.91666666666667,23.333333333333332,5.414583333333332,my,3.35,101.25
kombissiri,79.64291666666666,88.08333333333333,37.666666666666664,4.657916666666666,bf,12.066,-1.337
zhaotong,69.19124999999998,73.54166666666667,91.08333333333333,5.557083333333334,cn,27.317,103.717
rincon,83.66666666666667,73.91666666666667,48.375,14.576250000000003,an,12.233,-68.333
rincon,83.66666666666667,73.91666666666667,48.375,14.576250000000003,us,18.342,-67.25
rincon,80.47333333333334,83.625,50.5,11.959166666666668,an,12.233,-68.333
rincon,80.47333333333334,83.625,50.5,11.959166666666668,us,18.342,-67.25
le port,67.30166666666666,75.41666666666667,56.041666666666664,18.460833333333333,re,-20.917,55.3
sansai,81.16499999999999,81.125,67.70833333333333,5.8495833333333325,th,18.831,99.004
hostotipaquillo,69.95083333333334,80.41666666666667,94.29166666666667,2.135833333333333,mx,21.067,-104.067
sultanpur,85.31583333333333,76.5,69.20833333333333,5.009999999999999,in,23.15,77.933
novoseleznevo,66.96791666666668,75.20833333333333,99.33333333333333,9.101249999999999,ru,55.682,69.206
dickinson,73.63541666666669,60.208333333333336,1.0,10.695833333333333,us,46.879,-102.789
taoudenni,97.92833333333333,28.208333333333332,40.875,7.842916666666667,ml,22.667,-3.983
gonbad-e qabus,82.93041666666667,57.583333333333336,40.833333333333336,6.5874999999999995,ir,37.25,55.167
synya,52.34333333333333,63.583333333333336,47.625,5.317499999999999,ru,65.372,58.039
salta,59.97791666666668,69.41666666666667,33.333333333333336,4.181666666666666,ar,-24.786,-65.412
stadskanaal,66.7075,82.33333333333333,75.04166666666667,6.5225,nl,53.007,6.923
ranfurly,30.942499999999995,81.95833333333333,9.916666666666666,3.106666666666667,nz,-45.133,170.1
yining,75.49875,57.625,66.375,9.5075,cn,43.881,81.246
canon city,67.79041666666667,44.625,27.875,6.829166666666666,us,38.4,-105.217
jiuquan,81.83416666666666,25.666666666666668,38.958333333333336,6.447916666666667,cn,39.738,98.499
jalu,88.73708333333336,40.166666666666664,0.0,9.777083333333335,ly,29.033,21.55
vysokogornyy,66.90958333333333,87.04166666666667,71.125,3.3475,ru,50.117,139.15
grand-lahou,77.84583333333332,77.45833333333333,39.916666666666664,6.624999999999999,ci,5.136,-5.024
srednekolymsk,79.30375000000002,39.5,9.875,14.160833333333331,ru,67.45,153.683
panaba,83.82625,70.625,64.95833333333333,10.53041666666667,mx,21.283,-88.267
monteiro,73.10666666666667,66.25,62.958333333333336,8.674583333333334,br,-7.883,-37.117
vidim,59.947083333333346,72.70833333333333,69.33333333333333,2.7337500000000006,ru,56.382,103.1
boulder,70.57041666666667,41.041666666666664,16.208333333333332,4.629583333333332,us,40.015,-105.27
makung,83.72708333333334,79.91666666666667,77.75,8.100833333333334,tw,23.567,119.567
artyom,80.9,49.583333333333336,0.0,6.550416666666667,az,40.472,50.333
manokwari,80.82125,75.875,58.708333333333336,6.329583333333333,id,-0.867,134.083
grootfontein,54.42499999999999,48.708333333333336,0.0,3.926666666666666,na,-19.567,18.117
socorro,81.03208333333332,37.541666666666664,7.333333333333333,8.213333333333333,us,34.058,-106.891
rjukan,60.784166666666685,35.75,32.958333333333336,9.667916666666667,no,59.867,8.567
turukhansk,49.727916666666665,53.75,28.583333333333332,10.427083333333334,ru,65.817,87.983
lindi,73.72624999999998,79.66666666666667,36.25,12.026250000000003,tz,-10.0,39.717
luau,65.13916666666667,29.458333333333332,0.3333333333333333,4.967083333333334,ao,-10.707,22.225
la baneza,71.60125000000001,56.333333333333336,1.0,7.512083333333332,es,42.3,-5.898
astipalaia,75.58333333333333,69.0,0.0,19.414583333333336,gr,36.55,26.35
ragama,82.32500000000003,79.625,35.166666666666664,9.830833333333333,lk,7.031,79.917
muswellbrook,49.47666666666667,85.91666666666667,75.91666666666667,2.797083333333333,au,-32.261,150.89
la paz,83.75291666666666,46.291666666666664,20.083333333333332,8.686666666666667,mx,24.167,-110.3
angoram,79.94125000000001,81.70833333333333,54.333333333333336,2.9483333333333337,pg,-4.067,144.067
djibo,82.17958333333334,61.875,70.95833333333333,5.4120833333333325,bf,14.102,-1.631
san martin,47.525000000000006,57.041666666666664,0.0,3.7462499999999994,ar,-33.081,-68.468
boras,61.6525,81.375,68.75,9.014583333333336,se,57.717,12.917
curup,72.38375,87.95833333333333,88.29166666666667,4.090833333333333,id,-3.467,102.533
atakpame,74.94333333333334,79.41666666666667,76.95833333333333,2.6291666666666664,tg,7.533,1.133
kodino,72.22083333333335,59.916666666666664,72.79166666666667,3.8225000000000002,ru,63.72,39.645
muzhi,54.86458333333332,57.583333333333336,43.375,12.780416666666666,ru,65.367,64.667
walla walla,80.63125000000001,22.25,1.0,8.585,us,46.065,-118.342
fernandez,73.10166666666666,73.5,95.33333333333333,6.724583333333334,mx,21.95,-100.0
manali,67.08625,86.5,88.79166666666667,3.0833333333333335,in,32.267,77.167
zlatoustovsk,64.785,90.91666666666667,77.875,2.842916666666667,ru,52.964,133.597
marystown,57.238333333333344,86.125,94.625,5.431666666666668,ca,47.167,-55.167
alamosa,67.2375,52.25,5.708333333333333,9.123333333333335,us,37.469,-105.869
kourou,77.90541666666667,92.54166666666667,47.208333333333336,3.5291666666666655,gf,5.15,-52.65
yumen,75.06708333333334,28.583333333333332,24.041666666666668,5.004166666666666,cn,39.833,97.733
mayumba,73.94541666666666,88.70833333333333,56.291666666666664,7.259166666666666,ga,-3.417,10.65
katete,57.014583333333356,58.041666666666664,32.125,7.397083333333334,zm,-14.05,32.083
pundaguitan,83.26416666666667,73.75,91.16666666666667,8.864166666666664,ph,6.361,126.178
chodziez,70.57916666666667,66.5,20.791666666666668,6.569583333333334,pl,52.993,16.914
clinton,66.3,94.20833333333333,89.375,14.192500000000003,us,41.844,-90.189
elizabeth city,80.14666666666668,81.25,35.458333333333336,7.184583333333332,us,36.294,-76.251
nerchinskiy zavod,63.109583333333326,69.5,59.375,2.6520833333333336,ru,51.309,119.61
ayame,75.68791666666668,78.58333333333333,39.375,3.7433333333333327,ci,5.605,-3.157
sibut,74.51250000000002,83.54166666666667,96.875,2.3833333333333333,cf,5.733,19.083
nayudupeta,86.04708333333332,64.91666666666667,74.79166666666667,4.601666666666666,in,13.9,79.9
ceuta,76.07291666666666,87.20833333333333,81.25,6.4262500000000005,es,35.889,-5.319
fort saint james,64.50500000000001,50.916666666666664,28.5,5.222916666666667,ca,54.433,-124.25
kidal,95.18541666666665,28.25,50.333333333333336,8.074166666666667,ml,18.441,1.408
cururupu,77.82375,85.45833333333333,67.16666666666667,4.831666666666666,br,-1.833,-44.867
amarante do maranhao,80.78750000000001,46.166666666666664,40.208333333333336,4.099583333333334,br,-5.6,-46.75
martapura,81.2,81.08333333333333,65.70833333333333,6.6620833333333325,id,-3.417,114.85
heishan,77.715,81.45833333333333,67.04166666666667,9.53375,cn,41.689,122.113
ust-maya,54.092083333333335,89.54166666666667,81.70833333333333,4.552916666666667,ru,60.417,134.533
jatara,92.63083333333334,49.833333333333336,98.625,7.679583333333334,in,25.017,79.05
diamantina,57.706666666666656,54.75,0.0,2.5537499999999995,br,-18.25,-43.6
sanchor,90.74791666666668,58.416666666666664,89.70833333333333,10.062500000000002,in,24.755,71.772
rexburg,68.31958333333333,49.875,1.7916666666666667,4.737916666666666,us,43.826,-111.789
valparaiso,48.37958333333333,82.54166666666667,13.333333333333334,5.647916666666666,cl,-33.048,-71.601
maun,60.57499999999999,42.833333333333336,0.0,4.169166666666666,bw,-19.983,23.417
cedar rapids,68.26833333333333,78.79166666666667,83.95833333333333,12.466666666666669,us,42.008,-91.644
dunmore east,58.78791666666665,95.125,88.0,7.354166666666667,ie,52.151,-6.986
changping,80.24541666666666,83.16666666666667,36.125,6.336666666666666,cn,40.219,116.22
kragujevac,76.56666666666666,62.833333333333336,11.583333333333334,4.004166666666667,rs,44.017,20.917
ingham,65.95583333333335,67.91666666666667,46.875,4.286249999999999,au,-18.646,146.162
jhikargachha,85.33083333333333,76.79166666666667,88.70833333333333,7.587083333333332,bd,23.117,89.117
vadso,52.44416666666667,71.5,27.5,11.702916666666667,no,70.073,29.77
powell river,68.57083333333335,60.875,20.791666666666668,7.897500000000001,ca,49.883,-124.55
taber,71.29291666666667,51.125,19.041666666666668,13.329166666666673,ca,49.783,-112.15
jever,66.50541666666666,80.875,49.583333333333336,7.3325000000000005,de,53.583,7.9
collie,53.01833333333332,70.125,61.125,9.187916666666666,au,-33.362,116.156
novaya igirma,63.36708333333332,66.66666666666667,76.54166666666667,3.064583333333333,ru,57.133,103.911
sargatskoye,73.23208333333334,54.041666666666664,67.79166666666667,5.5183333333333335,ru,55.61,73.497
dossor,87.4375,32.416666666666664,26.458333333333332,10.160833333333333,kz,47.527,52.981
bogandinskiy,61.17500000000001,78.125,58.541666666666664,11.555833333333332,ru,56.894,65.894
mnogovershinnyy,62.48749999999999,90.45833333333333,94.83333333333333,2.9937500000000004,ru,53.935,139.924
sinkat,87.53250000000001,39.458333333333336,55.083333333333336,12.866666666666669,sd,18.837,36.833
powell,76.98166666666665,19.25,1.0,9.735416666666667,us,44.754,-108.757
kytlym,56.17249999999999,59.0,7.916666666666667,4.720416666666665,ru,59.5,59.202
barawe,78.19083333333336,79.04166666666667,38.833333333333336,18.579583333333336,so,1.1,44.05
stolin,75.82583333333334,59.25,17.666666666666668,4.210833333333333,by,51.883,26.85
hagere hiywet,59.17666666666668,85.5,85.25,3.1429166666666664,et,8.983,37.85
gollere,87.75625000000001,45.958333333333336,87.5,11.267083333333332,sn,16.25,-14.1
alberton,64.98666666666668,78.20833333333333,31.458333333333332,7.194166666666668,ca,46.8,-64.067
paramirim,75.21958333333335,45.583333333333336,63.125,5.355,br,-13.433,-42.25
mortka,55.345416666666665,60.25,53.166666666666664,7.2175,ru,59.332,66.021
valjala,70.415,75.91666666666667,58.958333333333336,8.545416666666666,ee,58.406,22.801
sao marcos,58.67541666666667,60.75,4.625,4.285833333333333,br,-28.967,-51.067
colorado springs,67.71708333333332,46.541666666666664,28.125,6.993333333333333,us,38.834,-104.821
vicksburg,78.62416666666665,98.79166666666667,33.375,7.717500000000001,us,32.352,-90.878
grants,77.3,37.416666666666664,2.625,11.988333333333335,us,35.147,-107.851
oranjemund,54.38166666666667,68.66666666666667,9.041666666666666,5.798749999999999,na,-28.55,16.433
illoqqortoormiut,46.53333333333334,63.833333333333336,97.58333333333333,3.3225000000000002,gl,70.483,-21.967
bam,99.39958333333333,8.375,18.041666666666668,9.227500000000001,ir,29.106,58.357
hanmer springs,36.39625000000001,65.08333333333333,47.625,2.92125,nz,-42.517,172.817
jertih,81.15541666666665,83.0,25.0,3.4262499999999996,my,5.734,102.49
maicao,82.14291666666666,69.91666666666667,99.875,15.61916666666667,co,11.383,-72.243
kampot,80.3,82.29166666666667,40.208333333333336,6.751666666666666,kh,10.617,104.183
guider,81.42875000000001,70.08333333333333,44.083333333333336,5.721666666666667,cm,9.934,13.949
adrar,101.75,7.0,22.333333333333332,12.66166666666667,dz,27.9,-0.283
skjervoy,54.21041666666665,80.91666666666667,21.833333333333332,8.04666666666667,no,70.033,20.983
santa maria da vitoria,74.80291666666666,40.125,21.458333333333332,3.254583333333333,br,-13.4,-44.2
ruatoria,48.068333333333335,73.83333333333333,99.75,8.667499999999999,nz,-37.883,178.333
durango,77.88333333333334,28.791666666666668,1.0,7.655416666666667,us,37.275,-107.879
dir,80.13166666666665,64.70833333333333,27.416666666666668,4.576249999999999,pk,35.206,71.876
teya,63.921250000000015,70.41666666666667,87.08333333333333,5.510833333333333,ru,60.378,92.627
mwene-ditu,70.65208333333332,24.916666666666668,1.625,6.185833333333332,cd,-7.0,23.45
sakaraha,69.6875,41.083333333333336,0.25,4.17875,mg,-22.9,44.533
ranau,82.68416666666667,83.04166666666667,26.666666666666668,4.119583333333332,my,5.954,116.664
kitob,81.72500000000001,34.041666666666664,32.708333333333336,7.782916666666668,uz,39.118,66.876
bafoulabe,81.38583333333332,71.375,98.33333333333333,6.826250000000002,ml,13.8,-10.833
loutrakion,82.93208333333334,33.458333333333336,7.5,9.287500000000003,gr,37.983,22.967
mosquera,78.14416666666666,79.41666666666667,61.208333333333336,7.559999999999998,co,2.509,-78.451
atuona,77.85083333333334,78.79166666666667,34.75,21.360416666666666,pf,-9.8,-139.033
gizo,82.45708333333333,75.54166666666667,97.75,7.807500000000001,sb,-8.1,156.85
dinsor,78.23625,61.666666666666664,78.79166666666667,18.145,so,2.4,42.983
ibiapina,72.20708333333333,59.0,63.541666666666664,5.951250000000002,br,-3.917,-40.9
faanui,80.0625,73.70833333333333,24.458333333333332,20.815,pf,-16.483,-151.75
taveta,70.625,63.708333333333336,75.0,6.801666666666666,ke,-3.4,37.683
gorontalo,77.54958333333332,92.66666666666667,92.45833333333333,2.3404166666666666,id,0.541,123.059
tynda,61.15708333333334,65.29166666666667,76.04166666666667,2.8537500000000002,ru,55.167,124.717
geraldton,59.9,73.125,44.166666666666664,13.28416666666667,au,-28.779,114.615
tra vinh,82.14541666666666,76.41666666666667,72.08333333333333,2.5100000000000002,vn,9.935,106.345
fairlie,38.16625,62.708333333333336,1.125,4.868333333333335,nz,-44.1,170.833
columbus,78.86083333333333,88.95833333333333,43.166666666666664,9.7825,us,33.496,-88.427
lanivtsi,73.20208333333333,63.166666666666664,14.0,4.754166666666667,ua,49.863,26.091
lydenburg,49.747083333333336,40.25,0.0,2.045,za,-25.098,30.46
pevek,45.13249999999999,74.5,55.041666666666664,9.4,ru,69.701,170.313
talavera de la reina,89.3675,18.583333333333332,50.208333333333336,10.655000000000001,es,39.963,-4.831
devils lake,77.41000000000001,54.833333333333336,17.541666666666668,7.672499999999999,us,48.113,-98.865
aranos,60.31458333333333,24.125,0.0,13.621666666666668,na,-24.133,19.117
lao cai,81.79583333333333,81.75,83.29166666666667,2.24625,vn,22.483,103.95
fairview,66.75541666666668,56.041666666666664,66.66666666666667,13.712499999999999,ca,56.067,-118.4
hvammstangi,56.20708333333332,76.58333333333333,66.25,3.14625,is,65.4,-20.95
rosario,47.38458333333333,66.125,3.125,5.098333333333334,ar,-32.947,-60.639
crixas,75.54583333333332,30.75,37.708333333333336,5.436666666666667,br,-14.45,-49.967
busayra,76.79166666666666,43.375,0.0,6.118333333333332,jo,30.738,35.608
lichtenburg,55.04458333333334,31.833333333333332,0.08333333333333333,6.841666666666669,za,-26.152,26.16
san lawrenz,80.58916666666666,64.625,4.166666666666667,8.199166666666667,mt,36.056,14.204
ridgecrest,100.82375,13.333333333333334,26.208333333333332,7.579583333333333,us,35.623,-117.67
phuntsholing,80.78416666666668,83.83333333333333,98.54166666666667,2.2891666666666666,bt,26.85,89.383
lusambo,77.3375,25.5,24.375,3.63625,cd,-4.967,23.45
lokosovo,54.601250000000014,56.333333333333336,45.25,7.068749999999999,ru,61.133,74.817
achisay,71.52166666666666,33.25,8.416666666666666,9.075416666666667,kz,43.554,68.889
kaunas,72.09124999999999,69.75,32.208333333333336,3.452083333333333,lt,54.9,23.9
deputatskiy,50.23458333333335,78.625,99.95833333333333,5.455833333333334,ru,69.3,139.9
tsybuliv,74.44333333333333,61.333333333333336,51.125,6.31125,ua,49.079,29.847
campoverde,77.4275,81.58333333333333,45.083333333333336,2.8287499999999994,pe,-8.475,-74.806
kondinskoye,55.34708333333334,62.791666666666664,65.625,8.475,ru,59.648,67.41
brazzaville,76.83041666666666,79.0,4.208333333333333,4.824166666666666,cg,-4.259,15.285
tabialan,83.60374999999999,70.91666666666667,75.0,5.172083333333334,ph,6.028,121.894
brandon,72.50000000000001,72.08333333333333,5.75,7.529166666666666,ca,49.833,-99.95
ilhabela,64.04166666666669,71.58333333333333,0.041666666666666664,2.9904166666666665,br,-23.783,-45.35
teeli,64.55625,73.33333333333333,81.375,4.664583333333333,ru,51.033,90.233
chitral,85.07791666666667,45.916666666666664,0.7083333333333334,5.035833333333334,pk,35.846,71.786
roros,58.474999999999994,88.58333333333333,74.04166666666667,4.8391666666666655,no,62.583,11.4
bukachacha,66.71666666666665,58.916666666666664,68.5,3.25,ru,52.983,116.917
sembe,76.15708333333332,79.75,47.708333333333336,2.619166666666667,cg,1.648,14.581
vilhena,73.79458333333334,43.625,38.166666666666664,6.0,br,-12.717,-60.117
marigot,82.87375000000002,79.20833333333333,31.25,15.104583333333336,gp,18.067,-63.083
nikki,77.54791666666667,74.33333333333333,84.625,4.197916666666666,bj,9.934,3.204
rahon,93.79625,53.875,60.333333333333336,12.098333333333331,in,31.05,76.117
raduzhnyy,60.800416666666656,56.625,0.5833333333333334,6.822499999999998,ru,59.483,49.65
elko,84.84208333333332,18.708333333333332,17.458333333333332,5.532916666666666,us,40.833,-115.762
sofiysk,63.30416666666667,89.20833333333333,71.875,3.027083333333333,ru,52.254,133.987
aklavik,63.33375000000001,64.66666666666667,53.666666666666664,6.519166666666666,ca,68.217,-135.0
findochty,60.22666666666666,94.5,68.54166666666667,4.577499999999999,gb,57.683,-2.9
chany,69.59583333333335,62.333333333333336,47.416666666666664,3.1583333333333337,ru,55.312,76.765
narsaq,36.22708333333333,68.375,49.333333333333336,2.132916666666666,gl,77.302,-68.843
richard toll,80.43166666666666,60.166666666666664,97.75,11.144583333333335,sn,16.467,-15.683
sucre,69.86708333333334,72.08333333333333,55.333333333333336,2.4841666666666673,co,2.038,-76.924
cambrai,62.59625,76.0,50.625,4.437499999999999,fr,50.177,3.234
vardo,48.46333333333333,73.66666666666667,28.041666666666668,11.415,no,70.367,31.1
taitung,84.25916666666666,71.83333333333333,74.25,4.104166666666666,tw,22.75,121.15
jiayuguan,80.8025,25.458333333333332,33.375,6.6166666666666645,cn,39.817,98.3
vikyrovice,66.09583333333332,81.25,52.708333333333336,3.2833333333333328,cz,49.983,17.017
florida,47.308749999999996,58.458333333333336,2.9166666666666665,4.769166666666667,uy,-34.096,-56.214
zhigansk,52.31375,73.16666666666667,90.625,14.585416666666667,ru,66.77,123.371
stilling,63.8375,70.625,75.95833333333333,4.937916666666665,dk,56.062,9.988
vanino,67.80791666666669,84.95833333333333,60.375,3.3350000000000004,ru,49.087,140.254
sebina,58.33041666666666,36.166666666666664,0.0,7.619583333333332,bw,-20.867,27.25
chunian,100.64874999999999,35.208333333333336,47.375,9.1875,pk,30.964,73.98
zhengjiatun,79.86625,72.875,29.791666666666668,9.70125,cn,43.506,123.506
turmalina,64.46249999999999,59.25,0.08333333333333333,2.35875,br,-17.283,-42.75
vaitupu,82.09499999999998,77.66666666666667,61.875,18.33666666666667,wf,-13.233,-176.15
liberal,74.11875,58.583333333333336,13.75,11.030000000000001,us,37.043,-100.921
polson,73.60958333333333,41.333333333333336,6.958333333333333,6.736250000000001,us,47.694,-114.162
gallup,79.26625,25.375,1.0,9.483333333333336,us,35.528,-108.742
aleksandrovsk-sakhalinskiy,65.84333333333335,87.375,78.875,13.589583333333332,ru,50.898,142.156
dalby,50.13708333333333,85.125,20.541666666666668,5.401666666666666,au,-27.182,151.262
toliary,72.64458333333333,56.041666666666664,0.0,10.521666666666667,mg,-23.35,43.667
perevolotskiy,70.24125,59.625,20.666666666666668,11.66958333333333,ru,51.876,54.194
orocue,76.38166666666666,86.625,81.16666666666667,5.427083333333333,co,4.791,-71.335
petrovskoye,71.12333333333333,59.916666666666664,0.125,6.933333333333331,ru,57.01,39.269
dunda,64.77291666666666,48.875,2.1666666666666665,5.508333333333334,tz,-8.117,34.25
virginia beach,80.04541666666665,72.625,47.791666666666664,7.642916666666667,us,36.853,-75.978
litovko,74.61125000000001,79.91666666666667,85.66666666666667,7.13375,ru,49.236,135.174
xapuri,79.00958333333332,67.04166666666667,43.5,2.2920833333333337,br,-10.65,-68.517
crib point,52.15958333333334,83.0,92.75,9.897083333333335,au,-38.35,145.2
gofitskoye,79.54833333333333,38.125,0.0,6.754166666666667,ru,45.079,43.046
bafra,76.54333333333332,74.95833333333333,53.125,7.6725,tr,41.568,35.907
palaiokhora,81.91708333333334,59.666666666666664,0.0,9.996250000000002,gr,35.233,23.683
sumbe,71.79500000000002,81.875,12.458333333333334,6.622083333333335,ao,-11.206,13.844
dekar,58.711666666666666,27.333333333333332,0.0,7.180000000000001,bw,-21.533,21.933
yurga,67.17916666666666,68.91666666666667,27.666666666666668,2.7254166666666673,ru,55.723,84.886
sembakung,80.15749999999998,89.0,51.583333333333336,3.490416666666665,id,3.817,117.25
ginir,62.79083333333333,63.291666666666664,68.45833333333333,12.250833333333334,et,7.133,40.7
uniontown,71.25333333333333,71.66666666666667,47.75,6.47625,us,39.9,-79.717
kilmez,62.07375,57.666666666666664,1.5416666666666667,8.462499999999999,ru,56.944,51.065
umba,58.586249999999986,72.70833333333333,87.16666666666667,8.536666666666667,ru,66.687,34.343
srivardhan,79.87666666666665,90.45833333333333,99.91666666666667,12.443750000000003,in,18.033,73.017
bolshaya murta,65.65083333333332,67.54166666666667,71.33333333333333,1.8920833333333331,ru,56.906,93.15
luganville,78.86458333333333,84.25,82.75,6.932916666666668,vu,-15.533,167.167
guozhen,83.92708333333333,56.125,35.625,3.6850000000000005,cn,34.366,107.359
kigoma,70.93833333333333,61.291666666666664,15.916666666666666,8.483333333333334,tz,-4.877,29.627
hoyanger,60.33416666666667,83.16666666666667,77.29166666666667,7.8175,no,61.217,6.083
kuching,79.76249999999999,87.45833333333333,29.166666666666668,4.56125,my,1.55,110.333
nizhniy odes,56.68583333333333,59.541666666666664,24.916666666666668,6.386666666666667,ru,63.645,54.856
nova serrana,63.45250000000001,47.083333333333336,0.0,2.7045833333333333,br,-19.867,-44.983
tyukalinsk,69.77458333333333,66.04166666666667,70.79166666666667,7.667500000000001,ru,55.873,72.197
nevsehir,75.18375,42.333333333333336,15.833333333333334,6.283333333333334,tr,38.625,34.712
villa bruzual,76.12374999999999,86.375,91.79166666666667,2.435,ve,9.333,-69.121
manalurpet,81.92125,65.125,99.79166666666667,7.754583333333332,in,12.017,79.1
selkirk,80.08083333333333,46.666666666666664,9.041666666666666,4.802083333333333,ca,50.15,-96.883
salme,70.21666666666667,75.91666666666667,58.541666666666664,8.550833333333333,ee,58.161,22.262
humaita,80.9,49.958333333333336,85.29166666666667,3.2991666666666664,br,-7.516,-63.022
kotma,85.07708333333333,62.291666666666664,94.5,7.473333333333334,in,23.2,81.967
karauzyak,84.575,25.708333333333332,0.0,6.115833333333334,uz,43.028,60.013
kilimatinde,68.31458333333333,51.416666666666664,22.291666666666668,4.355416666666666,tz,-5.85,34.95
abu kamal,96.53375,20.916666666666668,0.0,9.09375,sy,34.45,40.919
jaciara,75.54541666666668,34.166666666666664,73.375,2.0966666666666662,br,-15.983,-54.95
kupino,70.18708333333335,55.791666666666664,11.041666666666666,5.105833333333334,ru,54.366,77.298
aconibe,69.79916666666666,90.95833333333333,74.20833333333333,2.278333333333333,gq,1.3,10.933
akkermanovka,67.62500000000001,77.29166666666667,68.95833333333333,8.014166666666666,ru,51.194,58.212
nanaimo,67.12916666666665,61.708333333333336,7.583333333333333,8.087916666666665,ca,49.15,-123.917
ponte de sor,75.37625000000001,48.291666666666664,31.875,3.4916666666666667,pt,39.25,-8.01
mergui,78.6,87.75,100.0,6.559999999999998,mm,12.433,98.6
mrirt,89.84625,12.708333333333334,41.25,10.56375,ma,33.17,-5.567
kedrovyy,65.48041666666666,73.5,89.54166666666667,4.996666666666667,ru,57.52,79.516
marathon,83.64416666666666,73.08333333333333,26.541666666666668,9.687916666666665,us,24.713,-81.091
mahon,77.97500000000001,70.79166666666667,0.8333333333333334,8.439583333333333,es,39.883,4.25
farrukhnagar,75.49916666666665,92.33333333333333,80.0,6.09,in,17.078,78.201
mackenzie,61.100000000000016,65.16666666666667,16.708333333333332,5.264166666666667,ca,55.33,-123.09
provideniya,53.41166666666666,74.95833333333333,56.083333333333336,5.656249999999999,ru,64.383,-173.3
guerrero negro,71.56916666666666,71.875,50.0,14.278333333333334,mx,27.977,-114.061
putyatino,74.45125,59.708333333333336,0.25,6.927499999999999,ru,54.16,41.117
mooi river,52.67625,34.208333333333336,0.0,3.56875,za,-29.208,29.995
canutama,82.0925,50.083333333333336,88.25,3.543333333333335,br,-6.533,-64.333
noumea,68.53208333333335,86.04166666666667,69.16666666666667,4.420416666666665,nc,-22.267,166.45
davidson,77.57708333333333,47.625,0.125,8.634166666666667,ca,51.267,-105.967
rundu,60.69416666666667,30.5,0.0,5.678750000000001,na,-17.933,19.767
fourmies,61.79958333333334,85.70833333333333,72.45833333333333,3.0620833333333324,fr,50.015,4.048
bagdarin,61.06499999999999,74.95833333333333,88.125,2.62625,ru,54.433,113.6
nueva loja,71.35166666666667,94.54166666666667,77.16666666666667,2.039166666666667,ec,0.085,-76.883
tawang,57.97833333333333,92.66666666666667,95.625,1.6758333333333326,in,27.583,91.867
zalantun,75.09375,71.83333333333333,52.375,4.951666666666667,cn,48.0,122.717
tabas,101.27458333333333,11.875,0.0,4.41875,ir,33.596,56.924
khatra,85.05499999999999,73.0,82.79166666666667,8.12625,in,22.983,86.85
fernie,67.57041666666666,51.166666666666664,3.0416666666666665,6.5683333333333325,ca,49.5,-115.067
tucuman,59.900000000000006,48.583333333333336,89.66666666666667,4.141249999999999,ar,-26.824,-65.223
sindand,92.64583333333333,15.583333333333334,0.0,11.6425,af,33.303,62.147
carnarvon,52.63750000000001,35.958333333333336,3.4166666666666665,13.565833333333336,za,-30.968,22.133
carnarvon,52.63750000000001,35.958333333333336,3.4166666666666665,13.565833333333336,au,-24.881,113.659
carnarvon,66.575,62.25,37.125,11.55666666666667,za,-30.968,22.133
carnarvon,66.575,62.25,37.125,11.55666666666667,au,-24.881,113.659
little current,65.17958333333333,75.0,48.625,3.977499999999999,ca,45.967,-81.933
pangody,53.513749999999995,51.791666666666664,43.791666666666664,9.772083333333336,ru,65.917,74.833
port-de-paix,82.00958333333334,72.79166666666667,74.04166666666667,17.364583333333332,ht,19.95,-72.833
almaty,76.4,42.041666666666664,75.20833333333333,6.4416666666666655,kz,43.25,76.95
bayangol,63.65083333333333,82.45833333333333,98.20833333333333,3.0954166666666656,ru,50.698,103.466
nyrad,65.64041666666668,76.20833333333333,61.416666666666664,3.1124999999999994,dk,55.005,11.961
san jose,82.54291666666668,77.91666666666667,55.708333333333336,5.954583333333335,ph,10.989,125.035
cape town,53.987500000000004,76.5,27.5,9.685,za,-33.926,18.423
temaraia,82.29708333333333,74.375,78.75,11.820833333333333,ki,-0.667,174.45
karakose,70.80958333333334,46.833333333333336,30.583333333333332,7.8775,tr,39.719,43.051
joao pinheiro,64.51958333333334,36.958333333333336,0.0,4.140416666666666,br,-17.75,-46.167
nguru,87.97500000000001,49.125,48.833333333333336,8.65875,ng,12.879,10.453
avarua,77.22500000000001,80.875,63.333333333333336,9.637916666666667,ck,-21.208,-159.775
tete,74.31708333333333,55.166666666666664,11.666666666666666,6.852083333333333,mz,-16.156,33.587
ambikapur,81.75291666666666,72.41666666666667,95.41666666666667,6.2799999999999985,in,23.117,83.2
voghera,76.30458333333333,65.75,9.166666666666666,4.984583333333332,it,44.983,9.017
maksatikha,74.16875000000002,56.291666666666664,5.375,5.324583333333333,ru,57.797,35.883
macklin,71.46083333333333,49.791666666666664,46.166666666666664,9.172500000000001,ca,52.333,-109.95
poum,71.43041666666666,68.83333333333333,82.04166666666667,18.512916666666666,nc,-20.233,164.017
gorele,78.04999999999998,75.83333333333333,62.916666666666664,4.654166666666666,tr,41.031,39.003
pingxiang,87.00958333333334,60.416666666666664,90.91666666666667,5.6175,cn,27.617,113.85
puerto castilla,82.20958333333333,85.25,66.875,13.123333333333337,hn,16.017,-85.967
itapora,70.04083333333334,41.666666666666664,0.0,5.965,br,-22.017,-54.9
hong gai,86.30000000000001,78.875,30.75,4.887499999999998,vn,20.951,107.08
senanga,63.19999999999999,33.833333333333336,0.0,6.742083333333333,zm,-16.117,23.267
ust-barguzin,57.635833333333345,69.29166666666667,74.5,4.7629166666666665,ru,53.45,108.983
veshkayma,66.85083333333334,64.83333333333333,17.75,9.346666666666668,ru,54.047,47.13
miami,70.81124999999999,88.08333333333333,53.25,7.414166666666667,us,36.874,-94.877
magadi,77.78416666666665,46.5,82.41666666666667,4.600416666666667,ke,-1.9,36.283
ariquemes,78.30833333333334,41.166666666666664,27.708333333333332,3.050416666666667,br,-9.933,-63.067
belaya glina,82.1708333333333,38.375,7.75,7.83625,ru,46.078,40.867
shevchenkove,76.98875000000001,68.25,19.916666666666668,9.186666666666666,ua,46.863,32.204
barra do bugres,76.05041666666666,31.916666666666668,82.25,3.0866666666666673,br,-15.083,-57.183
mogok,72.87375,79.75,70.79166666666667,2.1675,mm,22.917,96.5
grenada,78.80458333333334,85.875,50.5,7.166666666666667,us,33.769,-89.808
la plata,78.41250000000001,76.875,33.083333333333336,5.974166666666666,us,38.529,-76.976
huejuquilla el alto,64.79666666666667,77.08333333333333,99.41666666666667,2.495833333333333,mx,22.6,-103.867
rawah,97.77958333333333,18.583333333333332,0.0,10.178749999999999,iq,34.469,41.917
kurilsk,57.12875,87.20833333333333,42.625,6.923750000000001,ru,45.233,147.883
devrek,73.31458333333335,76.08333333333333,11.208333333333334,4.739583333333333,tr,41.219,31.956
shintomi,83.545,69.125,80.83333333333333,10.254583333333331,jp,32.063,131.487
lewiston,77.47,22.583333333333332,41.833333333333336,4.734166666666666,us,46.417,-117.017
ojinaga,84.58666666666666,51.166666666666664,27.125,10.647916666666667,mx,29.567,-104.417
shkotovo-22,71.52499999999999,88.79166666666667,79.375,5.032499999999998,ru,42.88,132.338
veliki preslav,72.79833333333335,67.83333333333333,25.333333333333332,4.4158333333333335,bg,43.167,26.817
akdepe,83.68708333333335,34.25,0.0,7.793333333333336,tm,42.05,59.4
gamba,74.80458333333333,84.5,67.875,7.218750000000001,ga,-2.65,10.0
braganca,69.85791666666667,63.875,68.04166666666667,2.807916666666667,pt,41.806,-6.757
mirnyy,62.94208333333333,57.666666666666664,95.45833333333333,4.740000000000001,ru,62.535,113.961
salalah,82.10000000000002,81.66666666666667,81.04166666666667,8.632083333333332,om,17.017,54.083
barentsburg,43.025000000000006,74.66666666666667,57.5,15.438750000000008,sj,78.067,14.233
sriperumbudur,85.39999999999999,69.54166666666667,75.0,7.427083333333333,in,12.969,79.949
shihezi,81.03541666666665,47.958333333333336,79.70833333333333,7.897916666666667,cn,44.3,86.033
san ramon,78.30958333333334,40.583333333333336,66.625,2.9762500000000003,bo,-14.483,-63.15
san ramon,78.30958333333334,40.583333333333336,66.625,2.9762500000000003,bo,-13.283,-64.717
san ramon,82.21208333333334,48.625,53.083333333333336,4.072499999999999,bo,-14.483,-63.15
san ramon,82.21208333333334,48.625,53.083333333333336,4.072499999999999,bo,-13.283,-64.717
kushiro,61.59333333333331,96.5,86.25,5.537499999999999,jp,42.975,144.375
alekseyevka,71.17333333333333,45.708333333333336,70.16666666666667,5.977499999999999,kz,51.998,70.934
sesheke,62.057916666666664,36.666666666666664,0.0,5.221666666666667,zm,-17.467,24.3
ponta do sol,71.61958333333332,66.375,20.0,14.04875,pt,32.667,-17.1
bengkulu,79.29499999999999,81.5,85.625,4.740416666666666,id,-3.8,102.267
gazojak,86.57875,21.0,0.0,8.090833333333332,tm,41.183,61.4
ust-kut,58.68208333333334,85.0,88.41666666666667,1.9670833333333337,ru,56.794,105.767
blagoveshchenka,70.17333333333332,60.458333333333336,86.25,6.987500000000001,ru,52.833,79.867
murray bridge,53.90708333333333,69.79166666666667,23.041666666666668,4.277916666666666,au,-35.12,139.273
ocho rios,81.24416666666667,68.79166666666667,20.0,16.782083333333333,jm,18.417,-77.117
winston,78.04708333333333,85.54166666666667,42.166666666666664,6.829583333333333,us,28.031,-82.015
saint-michel-des-saints,64.53499999999998,62.75,77.375,3.649999999999999,ca,46.667,-73.917
aden,86.91458333333333,70.79166666666667,51.291666666666664,9.654583333333333,ye,12.779,45.037
castlemaine,46.122499999999995,87.04166666666667,93.54166666666667,3.7012500000000004,au,-37.067,144.217
hays,70.85125,66.41666666666667,38.166666666666664,13.809583333333338,us,38.879,-99.326
paytug,80.5275,47.625,59.208333333333336,5.9274999999999975,uz,40.894,72.244
oksfjord,60.45000000000001,64.875,29.125,6.571666666666666,no,70.239,22.371
albany,52.100000000000016,76.66666666666667,77.0,9.590833333333334,au,-35.003,117.866
koslan,64.20166666666668,58.875,43.75,5.6937500000000005,ru,63.456,48.899
bafq,101.06791666666668,8.541666666666666,0.041666666666666664,6.859999999999999,ir,31.613,55.411
ostersund,63.048750000000005,84.95833333333333,58.458333333333336,9.446250000000003,se,63.183,14.65
palimbang,81.36791666666667,80.95833333333333,86.83333333333333,3.6545833333333335,ph,6.211,124.189
nikolskoye,55.64833333333332,76.0,41.291666666666664,4.995416666666666,ru,55.194,165.993
loreto,86.71166666666666,59.833333333333336,57.291666666666664,6.768333333333335,mx,26.017,-111.35
eten,68.50833333333334,75.54166666666667,18.25,8.970833333333333,pe,-6.908,-79.864
votkinsk,61.958333333333336,69.70833333333333,32.208333333333336,3.7162500000000005,ru,57.049,53.987
gualaco,69.66125000000001,81.66666666666667,96.33333333333333,2.8166666666666664,hn,15.05,-86.05
campo maior,84.07458333333334,48.875,69.33333333333333,4.471666666666668,br,-4.817,-42.167
puerto colombia,80.44999999999997,88.45833333333333,70.625,4.602916666666666,co,10.988,-74.955
sabha,95.28583333333331,15.541666666666666,0.0,9.354583333333334,ly,27.033,14.433
mabaruma,77.82416666666666,86.625,79.95833333333333,3.498333333333333,gy,8.2,-59.783
sept-iles,58.832916666666655,84.08333333333333,64.91666666666667,4.110833333333333,ca,50.2,-66.383
jingdezhen,85.06583333333333,70.75,96.625,4.456666666666667,cn,29.295,117.208
stafford,62.29666666666665,81.91666666666667,56.333333333333336,7.397083333333334,gb,52.833,-2.0
ossora,61.3375,61.208333333333336,67.20833333333333,3.190833333333334,ru,59.235,163.072
worland,75.48583333333333,27.291666666666668,1.7916666666666667,5.236249999999999,us,44.017,-107.955
pouso alegre,59.303750000000015,61.916666666666664,0.0,1.3395833333333333,br,-22.217,-45.933
mehamn,48.01999999999999,71.54166666666667,34.041666666666664,9.827083333333334,no,71.033,27.85
murindo,77.97541666666666,87.625,88.375,1.8520833333333335,co,6.985,-76.754
onokhoy,70.7,61.625,50.333333333333336,5.590833333333333,ru,51.932,108.075
rossland,74.11125000000001,45.708333333333336,0.08333333333333333,4.1933333333333325,ca,49.083,-117.817
dzhusaly,84.29458333333334,25.666666666666668,1.1666666666666667,9.887083333333333,kz,45.488,64.078
yuza,72.23583333333332,94.66666666666667,81.0,4.46625,jp,39.0,139.917
bandiagara,85.18041666666666,62.375,37.416666666666664,7.369166666666665,ml,14.35,-3.617
rafina,82.28833333333334,31.583333333333332,2.5,14.767500000000005,gr,38.017,24.0
roswell,79.15875,68.29166666666667,32.541666666666664,7.7783333333333315,us,33.394,-104.522
lesogorsk,70.14208333333333,58.833333333333336,2.9583333333333335,7.069166666666668,ru,55.098,43.936
korla,88.30583333333334,24.875,67.04166666666667,13.063333333333333,cn,41.76,86.147
lumajang,78.75458333333333,77.79166666666667,36.291666666666664,2.045833333333334,id,-8.133,113.225
kralendijk,83.75,73.91666666666667,48.416666666666664,14.576250000000003,an,12.15,-68.267
jatibonico,78.33458333333333,81.58333333333333,61.375,8.767916666666666,cu,21.942,-79.17
hungund,75.32208333333332,82.04166666666667,99.75,15.96625,in,16.067,76.05
santa isabel do rio negro,75.89041666666667,92.875,86.875,2.5920833333333335,br,-0.4,-65.033
nyimba,68.95041666666668,46.916666666666664,42.75,6.053333333333335,zm,-14.55,30.833
buenavista,77.945,86.16666666666667,99.33333333333333,3.9725,co,9.05,-76.003
lamar,74.16250000000001,51.0,18.041666666666668,6.985416666666666,us,38.087,-102.62
sebastian,79.70583333333332,82.25,13.791666666666666,7.614166666666667,us,27.816,-80.471
nedjo,57.84166666666665,94.70833333333333,91.83333333333333,2.4795833333333333,et,9.5,35.5
klaksvik,52.67708333333332,97.75,83.70833333333333,8.003333333333334,fo,62.233,-6.6
port blair,81.05583333333334,84.70833333333333,93.83333333333333,11.340416666666664,in,11.667,92.75
kysyl-syr,63.80916666666667,55.333333333333336,72.25,6.144583333333334,ru,63.899,122.762
jackson,63.817916666666655,47.166666666666664,1.0,4.0041666666666655,us,43.48,-110.762
takob,87.94999999999999,32.541666666666664,28.583333333333332,4.9987499999999985,tj,38.841,68.93
meilu,84.88291666666666,73.79166666666667,73.29166666666667,8.492083333333333,cn,21.457,110.766
bur gabo,77.99458333333332,75.79166666666667,30.458333333333332,16.2025,so,-1.217,41.85
ovalle,59.20541666666666,54.958333333333336,100.0,2.9675,cl,-30.598,-71.2
umm lajj,87.51708333333333,52.833333333333336,35.375,9.827916666666665,sa,25.021,37.269
fredericton,67.67833333333334,74.91666666666667,5.791666666666667,4.1170833333333325,ca,45.95,-66.633
berbera,93.74208333333333,36.125,15.25,24.64958333333333,so,10.436,45.016
tommot,56.17083333333332,74.04166666666667,49.708333333333336,3.7054166666666677,ru,58.956,126.293
cabanas,80.79041666666667,83.33333333333333,42.833333333333336,7.356666666666665,cu,22.976,-82.922
muslyumovo,65.09708333333333,63.083333333333336,4.541666666666667,10.729999999999999,ru,55.038,53.159
tarsus,85.98291666666667,76.04166666666667,26.666666666666668,5.777083333333334,tr,36.919,34.878
pousat,81.8875,77.625,76.04166666666667,3.6095833333333345,kh,12.533,103.917
libano,65.58583333333333,74.91666666666667,68.5,4.172083333333332,co,4.922,-75.062
doba,78.01374999999999,77.29166666666667,87.45833333333333,4.45625,td,8.65,16.85
krasnoselkup,51.36125000000001,48.875,41.791666666666664,9.5225,ru,65.7,82.467
brunsbuttel,67.28916666666667,74.29166666666667,54.375,8.104166666666666,de,53.9,9.15
kichera,60.710416666666674,73.79166666666667,87.375,2.52375,ru,55.938,110.1
toba,80.3525,81.33333333333333,53.958333333333336,5.7525,jp,34.483,136.85
blackwater,58.31083333333333,57.25,0.0,6.640416666666664,au,-23.584,148.879
junin,48.75666666666667,37.375,22.333333333333332,6.408333333333331,ar,-34.584,-60.943
blackfoot,73.35000000000001,38.75,2.625,6.172083333333332,us,43.191,-112.344
proti,81.63416666666667,52.666666666666664,21.375,5.4679166666666665,gr,40.95,24.0
cap malheureux,71.83124999999998,69.125,48.541666666666664,16.735833333333336,mu,-19.984,57.614
casper,70.09958333333334,41.75,1.0,5.746666666666666,us,42.867,-106.312
cap-haitien,81.54666666666667,73.79166666666667,59.5,13.295833333333334,ht,19.758,-72.204
kawambwa,61.915833333333325,40.541666666666664,0.0,6.335,zm,-9.783,29.083
burnie,51.720416666666665,80.83333333333333,92.0,6.4975,au,-41.056,145.904
russellville,75.8575,76.5,61.375,6.517499999999999,us,35.278,-93.134
hilo,71.28708333333334,80.08333333333333,66.33333333333333,6.756666666666667,us,19.73,-155.09
yarada,83.12458333333332,88.95833333333333,75.95833333333333,6.141666666666668,in,17.65,83.267
ust-bolsheretsk,55.442499999999995,83.20833333333333,80.04166666666667,8.91375,ru,52.823,156.278
verkh-usugli,63.962916666666665,63.791666666666664,56.708333333333336,4.492083333333333,ru,52.683,115.233
maloy,61.03874999999999,83.875,81.45833333333333,12.900833333333333,no,61.938,5.113
batie,78.93166666666666,64.875,87.83333333333333,3.4387499999999993,bf,9.883,-2.917
chara,62.85999999999999,62.041666666666664,75.75,2.8091666666666666,ru,56.906,118.263
south lake tahoe,79.60708333333334,35.25,1.0,6.842083333333334,us,38.933,-119.983
wloszczowa,68.9075,66.70833333333333,60.708333333333336,3.4929166666666664,pl,50.853,19.967
nizamabad,88.56500000000001,64.66666666666667,97.58333333333333,12.91666666666667,in,26.051,83.059
fairfield,66.49958333333335,100.0,87.5,13.520833333333337,us,41.009,-91.963
pauri,74.42416666666666,77.79166666666667,67.04166666666667,3.649166666666668,in,30.15,78.783
manicore,81.12500000000001,76.70833333333333,0.0,3.1145833333333335,br,-5.812,-61.297
primore,67.925,80.0,13.333333333333334,6.1499999999999995,ru,54.942,20.037
nalvo,83.72166666666666,74.33333333333333,72.58333333333333,4.598333333333334,ph,16.846,120.351
prieska,58.12708333333333,34.083333333333336,9.75,11.626666666666667,za,-29.664,22.747
amapa,75.96583333333332,91.5,93.5,2.9729166666666664,br,2.05,-50.8
caranavi,67.16666666666667,80.0,54.583333333333336,2.402083333333333,bo,-15.817,-67.55
leningradskiy,45.67708333333334,81.45833333333333,85.91666666666667,8.087916666666667,ru,69.383,178.417
karatuzskoye,65.28249999999998,74.20833333333333,83.20833333333333,2.7454166666666655,ru,53.607,92.867
krasnorechenskiy,68.87666666666668,89.79166666666667,69.08333333333333,2.1770833333333335,ru,44.627,135.353
santa ana,65.75708333333334,78.875,60.458333333333336,2.815416666666667,pe,-12.867,-72.717
dosso,86.35416666666667,55.208333333333336,49.458333333333336,4.848333333333333,ne,13.044,3.195
jiwani,83.13416666666666,80.66666666666667,93.29166666666667,11.187916666666666,pk,25.05,61.747
lodwar,84.88708333333335,37.916666666666664,84.29166666666667,9.479166666666666,ke,3.117,35.6
kamaishi,72.58750000000002,91.20833333333333,86.20833333333333,4.755,jp,39.267,141.883
zhoucheng,69.91916666666667,77.5,84.625,6.245416666666666,cn,24.355,102.542
podgornoye,65.43416666666666,71.79166666666667,81.70833333333333,5.037916666666666,ru,57.789,82.652
poim,74.38708333333334,61.583333333333336,0.0,7.772083333333331,ru,53.026,43.187
bayan,105.19625,12.166666666666666,0.0,7.300416666666667,kw,29.318,48.039
verkhnevilyuysk,62.06041666666667,64.66666666666667,77.91666666666667,5.991250000000002,ru,63.445,120.317
montanha,69.50333333333333,72.125,25.916666666666668,5.1225,br,-18.133,-40.35
merke,76.63791666666665,38.416666666666664,41.583333333333336,5.895833333333335,kz,42.873,73.179
cananeia,63.60208333333335,83.875,0.9583333333333334,2.7974999999999994,br,-25.017,-47.95
phuket,80.45416666666667,92.91666666666667,65.20833333333333,4.132499999999999,th,7.833,98.383
armizonskoye,60.58166666666668,90.04166666666667,99.08333333333333,12.098750000000003,ru,55.946,67.674
saint george,80.45625,77.0,72.08333333333333,7.288333333333334,bm,32.382,-64.678
bhaderwah,74.90583333333332,81.375,45.708333333333336,2.915416666666667,in,32.983,75.717
si bun ruang,81.12583333333335,78.41666666666667,21.416666666666668,5.406666666666666,th,16.967,102.283
kovdor,63.70250000000001,67.54166666666667,95.75,5.9525,ru,67.566,30.476
tursunzoda,87.94999999999999,32.541666666666664,18.833333333333332,5.068749999999999,tj,38.511,68.23
grand centre,69.05,68.375,59.375,8.042499999999999,ca,54.417,-110.215
balakovo,73.66749999999999,56.291666666666664,5.166666666666667,11.05916666666667,ru,51.928,47.917
dembi dolo,58.88,90.95833333333333,90.83333333333333,2.51875,et,8.533,34.8
abnub,89.375,34.166666666666664,0.0,6.799583333333332,eg,27.267,31.15
kuche,85.87124999999999,25.625,35.708333333333336,10.570000000000002,cn,41.728,82.936
semporna,81.64999999999999,87.75,21.666666666666668,3.910833333333333,my,4.482,118.611
felanitx,80.67333333333335,54.916666666666664,0.0,5.7058333333333335,es,39.472,3.151
dourbali,88.0025,49.25,88.79166666666667,11.04875,td,11.809,15.861
khirkiya,89.24,58.625,91.875,4.517500000000001,in,22.167,76.85
chimore,75.80333333333334,71.0,49.166666666666664,2.207083333333333,bo,-16.983,-65.133
kuala lipis,77.36125,89.375,99.45833333333333,0.9704166666666666,my,4.184,102.047
hofn,53.558749999999996,83.95833333333333,71.66666666666667,10.125416666666668,is,64.25,-15.217
belgrade,72.28041666666665,37.541666666666664,1.7916666666666667,6.171666666666667,us,45.776,-111.176
sabinas,81.80291666666666,71.0,78.75,10.980833333333331,mx,27.85,-101.117
kizema,67.14583333333333,53.208333333333336,35.25,5.028750000000001,ru,61.113,44.83
sun city west,96.65833333333332,35.666666666666664,17.333333333333332,9.501249999999999,us,33.662,-112.341
savelugu,80.94374999999997,65.125,76.29166666666667,4.9799999999999995,gh,9.625,-0.828
culipapa,81.62458333333335,77.29166666666667,80.58333333333333,2.8204166666666666,ph,9.473,122.562
qandahar,96.53583333333336,16.166666666666668,0.0,6.212916666666666,af,31.613,65.71
jahrom,91.99999999999999,17.958333333333332,15.541666666666666,6.616666666666667,ir,28.502,53.553
brigantine,75.16625,80.58333333333333,26.0,6.0249999999999995,us,39.41,-74.365
aberdeen,71.18791666666667,65.75,9.166666666666666,4.600416666666666,us,45.465,-98.486
kumluca,87.29083333333331,48.0,21.25,6.336666666666666,tr,36.37,30.287
juquitiba,63.63166666666667,58.5,0.0,4.856666666666666,br,-23.927,-47.07
san luis,54.65500000000001,44.666666666666664,53.541666666666664,7.368333333333332,ar,-33.295,-66.336
simao,71.37916666666665,79.125,89.04166666666667,3.1579166666666674,cn,22.789,100.975
teneguiban,83.47750000000002,76.875,56.291666666666664,10.698333333333332,ph,11.357,119.505
ledyard,67.63416666666667,79.83333333333333,15.625,6.570833333333333,us,43.422,-94.162
oktyabrskoye,58.429166666666674,45.416666666666664,32.208333333333336,5.2820833333333335,ru,62.458,66.034
erhlin,84.78374999999998,85.625,61.875,5.267499999999999,tw,23.901,120.369
blensong,75.56125000000002,82.375,81.04166666666667,1.8958333333333337,ph,7.018,124.181
leskovac,77.8825,37.458333333333336,5.833333333333333,5.272499999999998,rs,42.998,21.946
birecik,85.83416666666666,41.5,9.166666666666666,6.492500000000001,tr,37.029,37.99
shestakovo,57.911249999999995,74.41666666666667,68.54166666666667,3.3483333333333345,ru,56.483,104.067
maykain,72.40416666666665,50.791666666666664,55.791666666666664,8.027500000000002,kz,51.462,75.799
garmsar,95.14833333333333,20.25,3.0,7.779583333333335,ir,35.218,52.341
dunmore town,81.77833333333335,73.91666666666667,40.041666666666664,15.414166666666665,bs,25.5,-76.65
leczyca,69.86041666666668,71.33333333333333,15.875,7.082083333333333,pl,52.059,19.202
pervomayskoye,67.60625,68.45833333333333,73.5,3.707083333333332,ru,57.076,86.231
constanza,77.5725,88.66666666666667,48.75,6.02875,do,18.917,-70.75
olonets,77.63958333333333,54.875,30.041666666666668,5.3725,ru,60.985,32.97
bossembele,71.94208333333334,82.25,79.16666666666667,3.2895833333333333,cf,5.267,17.65
villazon,45.066250000000004,58.083333333333336,21.875,4.649583333333333,bo,-22.1,-65.6
kalaleh,82.65291666666667,58.166666666666664,41.0,5.967083333333334,ir,37.381,55.492
tera,86.20541666666668,53.916666666666664,67.41666666666667,6.640416666666666,ne,14.011,0.753
ankara,73.72666666666667,40.833333333333336,10.0,4.914999999999999,tr,39.912,32.84
pozoblanco,89.22500000000001,37.291666666666664,0.0,6.453333333333334,es,38.379,-4.848
molchanovo,67.07625,68.79166666666667,78.375,4.352083333333334,ru,57.582,83.769
kibondo,68.77666666666669,40.791666666666664,63.0,5.163333333333332,tz,-3.586,30.72
gaoual,78.32541666666667,85.5,95.33333333333333,4.273333333333334,gn,11.75,-13.2
curaca,76.19749999999999,62.416666666666664,90.20833333333333,15.312916666666668,br,-8.983,-39.9
salamiyah,84.66041666666665,43.0,0.0,15.018333333333333,sy,35.017,37.05
guajara,80.99958333333333,71.375,83.125,3.0658333333333325,br,-2.967,-57.667
cockburn harbour,82.28708333333336,73.625,58.208333333333336,19.28541666666667,tc,21.483,-71.533
arroio grande,54.39541666666667,80.54166666666667,8.875,3.9841666666666664,br,-32.233,-53.083
longview,65.03833333333334,71.25,39.916666666666664,6.164999999999999,us,46.138,-122.937
susner,91.41916666666667,51.666666666666664,93.70833333333333,5.98875,in,23.95,76.083
yei,69.41791666666667,87.41666666666667,85.41666666666667,2.9912500000000004,sd,4.091,30.679
simpang,75.60916666666668,94.58333333333333,97.66666666666667,1.7241666666666668,id,-1.267,104.083
villa guerrero,65.455,75.95833333333333,98.95833333333333,2.416666666666667,mx,21.983,-103.6
aleksandrov gay,80.48625000000001,43.291666666666664,3.3333333333333335,13.222499999999998,ru,50.147,48.57
kenora,74.1825,58.041666666666664,67.08333333333333,7.144583333333333,ca,49.767,-94.467
sonepur,87.66875,63.083333333333336,86.25,8.773749999999998,in,20.833,83.917
high prairie,64.69541666666667,60.458333333333336,42.25,10.869166666666665,ca,55.433,-116.483
rzeszow,72.36666666666666,76.375,28.333333333333332,7.145833333333335,pl,50.037,22.005
ketchikan,59.15000000000001,85.66666666666667,88.125,9.207916666666666,us,55.342,-131.646
cabudare,75.2,81.58333333333333,92.41666666666667,6.2316666666666665,ve,10.029,-69.089
hermiston,82.77666666666666,24.875,1.0,9.421666666666667,us,45.841,-119.288
tuapse,76.22041666666668,66.41666666666667,0.25,4.112916666666667,ru,44.105,39.08
kracheh,81.05,83.70833333333333,67.45833333333333,3.8091666666666675,kh,12.483,106.017
koumac,69.2075,71.41666666666667,68.54166666666667,9.76375,nc,-20.567,164.283
nara,85.78000000000002,53.25,79.54166666666667,6.147500000000001,ml,15.167,-7.283
terra roxa,59.89708333333334,61.666666666666664,0.0,3.4162500000000002,br,-23.856,-50.031
tessaoua,85.99500000000002,50.541666666666664,49.541666666666664,11.024166666666666,ne,13.753,7.986
barrow,34.84999999999999,82.41666666666667,88.75,15.104583333333338,us,71.291,-156.789
sinop,75.36833333333333,74.91666666666667,4.166666666666667,9.752083333333333,tr,42.027,35.163
bluefields,76.33041666666666,93.66666666666667,81.20833333333333,4.9887500000000005,ni,12.0,-83.75
xai-xai,67.14041666666665,71.45833333333333,0.0,7.229583333333333,mz,-25.052,33.644
mujiayingzi,81.535,64.625,49.291666666666664,5.317083333333334,cn,42.117,118.783
urdzhar,73.2925,54.125,62.375,11.423333333333334,kz,47.088,81.631
heyang,78.61791666666666,92.375,32.708333333333336,6.802916666666667,cn,29.995,106.257
sinait,83.59499999999998,85.0,58.208333333333336,4.684999999999999,ph,17.866,120.458
ifo,81.35,76.04166666666667,38.541666666666664,6.138750000000001,ng,6.814,3.196
cao bang,81.69083333333333,77.54166666666667,77.375,5.007083333333333,vn,22.667,106.25
vangaindrano,68.71499999999999,81.16666666666667,15.458333333333334,3.206666666666667,mg,-23.35,47.6
pedasi,78.84249999999999,80.83333333333333,99.0,6.342916666666668,pa,7.533,-80.033
kursenai,71.37499999999999,67.66666666666667,10.083333333333334,4.213749999999998,lt,55.985,22.919
cartagena del chaira,72.79083333333334,93.95833333333333,74.45833333333333,0.8620833333333332,co,1.335,-74.843
san mariano,82.77875,72.625,82.79166666666667,4.519166666666668,ph,16.983,122.014
tsimlyansk,82.35416666666669,50.958333333333336,5.916666666666667,10.087916666666667,ru,47.646,42.102
koulamoutou,79.96666666666665,66.41666666666667,46.458333333333336,2.120833333333333,ga,-1.133,12.483
troitskiy,57.58833333333332,80.91666666666667,99.875,8.967499999999998,ru,57.06,63.748
el faiyum,87.73833333333336,38.791666666666664,4.291666666666667,8.799583333333333,eg,29.308,30.84
anqing,86.57958333333333,67.16666666666667,98.08333333333333,8.4775,cn,30.509,117.051
dolbeau,64.18999999999998,77.79166666666667,77.29166666666667,3.8804166666666657,ca,48.867,-72.233
jutai,78.00416666666666,77.29166666666667,86.91666666666667,1.58125,br,-5.183,-68.9
